{"type": "FeatureCollection", "features": [{"id": "AMAD", "type": "Feature", "properties": {"name": "Ama Dablam", "alternate_names": ["Amai Dablang"], "height": 6814, "himal": "BARUN"}, "geometry": {"type": "Point", "coordinates": [86.8604289, 27.8621001]}}, {"id": "AMPG", "type": "Feature", "properties": {"name": "Amphu Gyabjen", "height": 5630, "himal": "BARUN"}, "geometry": {"type": "Point", "coordinates": [86.8708333, 27.8811111]}}, {"id": "ANN1", "type": "Feature", "properties": {"name": "Annapurna I", "height": 8091, "himal": "ANNAPURNA"}, "geometry": {"type": "Point", "coordinates": [83.8270789, 28.5962553]}}, {"id": "ANN2", "type": "Feature", "properties": {"name": "Annapurna II", "height": 7937, "himal": "ANNAPURNA"}, "geometry": {"type": "Point", "coordinates": [84.1218222, 28.5349707]}}, {"id": "ANN3", "type": "Feature", "properties": {"name": "Annapurna III", "height": 7555, "himal": "ANNAPURNA"}, "geometry": {"type": "Point", "coordinates": [83.9891091, 28.5853509]}}, {"id": "ANN4", "type": "Feature", "properties": {"name": "Annapurna IV", "height": 7525, "himal": "ANNAPURNA"}, "geometry": {"type": "Point", "coordinates": [84.0835623, 28.5368932]}}, {"id": "ANNE", "type": "Feature", "properties": {"name": "Annapurna I East", "alternate_names": ["Annapurna I"], "height": 8026, "himal": "ANNAPURNA"}, "geometry": {"type": "Point", "coordinates": [83.8270789, 28.5962553]}}, {"id": "ANNM", "type": "Feature", "properties": {"name": "Annapurna I Middle", "alternate_names": ["Annapurna I"], "height": 8051, "himal": "ANNAPURNA"}, "geometry": {"type": "Point", "coordinates": [83.8270789, 28.5962553]}}, {"id": "ANNS", "type": "Feature", "properties": {"name": "Annapurna South", "alternate_names": ["Annapurna Dakshin", "Moditse"], "height": 7219, "himal": "ANNAPURNA"}, "geometry": {"type": "Point", "coordinates": [83.8063433, 28.5183959]}}, {"id": "APIM", "type": "Feature", "properties": {"name": "Api Main", "height": 7132, "himal": "YOKAPAHAR"}, "geometry": {"type": "Point", "coordinates": [80.9316667, 30.0052778]}}, {"id": "APIW", "type": "Feature", "properties": {"name": "Api West", "height": 7076, "himal": "YOKAPAHAR"}, "geometry": {"type": "Point", "coordinates": [80.9255556, 30.0016667]}}, {"id": "BARU", "type": "Feature", "properties": {"name": "Baruntse", "alternate_names": ["Barun Tse"], "height": 7152, "himal": "BARUN"}, "geometry": {"type": "Point", "coordinates": [86.9827778, 27.8713889]}}, {"id": "BAUD", "type": "Feature", "properties": {"name": "Baudha", "height": 6672, "himal": "MANASLU"}, "geometry": {"type": "Point", "coordinates": [84.6788889, 28.3755556]}}, {"id": "BHEM", "type": "Feature", "properties": {"name": "Bhemdang Ri", "alternate_names": ["Morimoto", "Morimoto Peak"], "height": 6150, "himal": "LANGTANG"}, "geometry": {"type": "Point", "coordinates": [85.6635329, 28.2721381]}}, {"id": "BHRI", "type": "Feature", "properties": {"name": "Bhrikuti", "alternate_names": ["Damodar Himal"], "height": 6476, "himal": "DAMODAR"}, "geometry": {"type": "Point", "coordinates": [84.1475, 28.9188889]}}, {"id": "BOBA", "type": "Feature", "properties": {"name": "Bobaye", "height": 6808, "himal": "YOKAPAHAR"}, "geometry": {"type": "Point", "coordinates": [81.0195732, 29.9574701]}}, {"id": "CHAM", "type": "Feature", "properties": {"name": "Chamlang", "height": 7321, "himal": "BARUN"}, "geometry": {"type": "Point", "coordinates": [86.98151, 27.7772801]}}, {"id": "CHAN", "type": "Feature", "properties": {"name": "Changla", "alternate_names": ["Changla Himal"], "height": 6563, "himal": "CHANGLA"}, "geometry": {"type": "Point", "coordinates": [82.1288889, 30.3030556]}}, {"id": "CHMN", "type": "Feature", "properties": {"name": "Chamar North", "alternate_names": ["Chamar", "Peak 23"], "height": 7165, "himal": "SERANG"}, "geometry": {"type": "Point", "coordinates": [84.9437234, 28.5550852]}}, {"id": "CHEO", "type": "Feature", "properties": {"name": "Cheo Himal", "height": 6820, "himal": "PERI"}, "geometry": {"type": "Point", "coordinates": [84.4541667, 28.7647222]}}, {"id": "CHOY", "type": "Feature", "properties": {"name": "Cho Oyu", "alternate_names": ["Cho-Oyu"], "height": 8188, "himal": "KHUMBU"}, "geometry": {"type": "Point", "coordinates": [86.659654, 28.0967613]}}, {"id": "CHOB", "type": "Feature", "properties": {"name": "Chobuje", "alternate_names": ["Chobutse", "Tsoboje"], "height": 6686, "himal": "ROLWALING"}, "geometry": {"type": "Point", "coordinates": [86.5089226, 27.8745166]}}, {"id": "CHOL", "type": "Feature", "properties": {"name": "Cholatse", "alternate_names": ["Chola Tse", "Jobo Lhaptshan", "Tsolatse"], "height": 6423, "himal": "KHUMBU"}, "geometry": {"type": "Point", "coordinates": [86.7688889, 27.9202778]}}, {"id": "CHOP", "type": "Feature", "properties": {"name": "Cho Polu", "height": 6700, "himal": "BARUN"}, "geometry": {"type": "Point", "coordinates": [86.9819868, 27.9194539]}}, {"id": "CHUL", "type": "Feature", "properties": {"name": "Chulu Central", "alternate_names": ["Chulu", "Chulu East"], "height": 6584, "himal": "DAMODAR"}, "geometry": {"type": "Point", "coordinates": [84.035097, 28.7368233]}}, {"id": "CHUG", "type": "Feature", "properties": {"name": "Chukyima Go", "alternate_names": ["Chugimago"], "height": 6258, "himal": "ROLWALING"}, "geometry": {"type": "Point", "coordinates": [86.4525, 27.8322222]}}, {"id": "CHUR", "type": "Feature", "properties": {"name": "Churen Himal Central", "alternate_names": ["Churen"], "height": 7385, "himal": "DHAULAGIRI"}, "geometry": {"type": "Point", "coordinates": [83.2122222, 28.7322222]}}, {"id": "CHUW", "type": "Feature", "properties": {"name": "Chulu West", "height": 6419, "himal": "DAMODAR"}, "geometry": {"type": "Point", "coordinates": [84.0228323, 28.7454053]}}, {"id": "TAPL", "type": "Feature", "properties": {"name": "Taple Shikhar", "alternate_names": ["Cross Peak", "Taple Sikhar"], "height": 6447, "himal": "NORTHERN"}, "geometry": {"type": "Point", "coordinates": [88.1477778, 27.7611111]}}, {"id": "CTSE", "type": "Feature", "properties": {"name": "Changtse", "alternate_names": ["Chang Himal", "Changtse Peak", "Everest North Peak", "Wedge Peak"], "height": 7583, "himal": "KHUMBU"}, "geometry": {"type": "Point", "coordinates": [86.9151856, 28.024329]}}, {"id": "DHA1", "type": "Feature", "properties": {"name": "Dhaulagiri I", "alternate_names": ["Dhaulagiri"], "height": 8167, "himal": "DHAULAGIRI"}, "geometry": {"type": "Point", "coordinates": [83.4894884, 28.6976088]}}, {"id": "DHA2", "type": "Feature", "properties": {"name": "Dhaulagiri II", "height": 7751, "himal": "DHAULAGIRI"}, "geometry": {"type": "Point", "coordinates": [83.3873786, 28.7631589]}}, {"id": "DHA3", "type": "Feature", "properties": {"name": "Dhaulagiri III", "alternate_names": ["Nalu", "Naula"], "height": 7715, "himal": "DHAULAGIRI"}, "geometry": {"type": "Point", "coordinates": [83.3771445, 28.7540263]}}, {"id": "DHA4", "type": "Feature", "properties": {"name": "Dhaulagiri IV", "height": 7661, "himal": "DHAULAGIRI"}, "geometry": {"type": "Point", "coordinates": [83.314379, 28.7357489]}}, {"id": "DHA5", "type": "Feature", "properties": {"name": "Dhaulagiri V", "height": 7618, "himal": "DHAULAGIRI"}, "geometry": {"type": "Point", "coordinates": [83.3605794, 28.734057]}}, {"id": "DHA6", "type": "Feature", "properties": {"name": "Dhaulagiri VI", "height": 7268, "himal": "DHAULAGIRI"}, "geometry": {"type": "Point", "coordinates": [83.2731956, 28.7083897]}}, {"id": "DHAM", "type": "Feature", "properties": {"name": "Dhampus", "alternate_names": ["Marpha Peak", "Thapa Peak"], "height": 6012, "himal": "DHAULAGIRI"}, "geometry": {"type": "Point", "coordinates": [83.6119444, 28.7980556]}}, {"id": "DOGA", "type": "Feature", "properties": {"name": "Dogari", "alternate_names": ["Dogari Himal"], "height": 6536, "himal": "DHAULAGIRI"}, "geometry": {"type": "Point", "coordinates": [83.1002778, 28.7666667]}}, {"id": "PEMK", "type": "Feature", "properties": {"name": "Pemthang Karpo Ri", "alternate_names": ["Dome Blanc", "Kan Karmo", "Pem Thang Karpo Ri"], "height": 6865, "himal": "JUGAL"}, "geometry": {"type": "Point", "coordinates": [85.7482438, 28.2492806]}}, {"id": "DORJ", "type": "Feature", "properties": {"name": "Dorje Lhakpa", "alternate_names": ["Dorje Lyakpa"], "height": 6966, "himal": "JUGAL"}, "geometry": {"type": "Point", "coordinates": [85.7811111, 28.1738889]}}, {"id": "DRAN", "type": "Feature", "properties": {"name": "Drangnag Ri", "alternate_names": ["Dranganag Ri", "Thaknak Ri"], "height": 6757, "himal": "ROLWALING"}, "geometry": {"type": "Point", "coordinates": [86.5263889, 27.9469444]}}, {"id": "DROM", "type": "Feature", "properties": {"name": "Drohmo", "alternate_names": ["Domo", "Longridge Peak"], "height": 6881, "himal": "JANAK"}, "geometry": {"type": "Point", "coordinates": [88.105, 27.8238889]}}, {"id": "EVER", "type": "Feature", "properties": {"name": "Everest", "alternate_names": ["Chomolungma", "Qomolungma", "Sagarmatha"], "height": 8850, "himal": "KHUMBU"}, "geometry": {"type": "Point", "coordinates": [86.9248308, 27.9878675]}}, {"id": "FANG", "type": "Feature", "properties": {"name": "Fang", "alternate_names": ["Finger", "Varaha Chuli", "Varaha Shikhar"], "height": 7647, "himal": "ANNAPURNA"}, "geometry": {"type": "Point", "coordinates": [83.8033333, 28.5780556]}}, {"id": "FIRN", "type": "Feature", "properties": {"name": "Firnkopf", "alternate_names": ["Firnkof East", "Firnkopf East"], "height": 6730, "himal": "SAIPAL"}, "geometry": {"type": "Point", "coordinates": [81.4572222, 29.9013889]}}, {"id": "FIRW", "type": "Feature", "properties": {"name": "Firnkopf West", "alternate_names": ["Firnkof West"], "height": 6745, "himal": "SAIPAL"}, "geometry": {"type": "Point", "coordinates": [81.4469444, 29.8980556]}}, {"id": "GAN1", "type": "Feature", "properties": {"name": "Ganesh I", "alternate_names": ["Ganesh III", "Yangra", "Yangra Kangri"], "height": 7422, "himal": "GANESH"}, "geometry": {"type": "Point", "coordinates": [85.120491, 28.3363962]}}, {"id": "GAN3", "type": "Feature", "properties": {"name": "Ganesh III", "alternate_names": ["Kang Lombo", "Lopsang Karbo", "Salasungo"], "height": 7043, "himal": "GANESH"}, "geometry": {"type": "Point", "coordinates": [85.120491, 28.3363962]}}, {"id": "GAN2", "type": "Feature", "properties": {"name": "Ganesh II", "height": 7118, "himal": "GANESH"}, "geometry": {"type": "Point", "coordinates": [85.0551861, 28.3789024]}}, {"id": "GAN4", "type": "Feature", "properties": {"name": "Ganesh IV", "alternate_names": ["Pabil"], "height": 7104, "himal": "GANESH"}, "geometry": {"type": "Point", "coordinates": [85.0795779, 28.3452083]}}, {"id": "GAN5", "type": "Feature", "properties": {"name": "Ganesh V", "height": 6770, "himal": "GANESH"}, "geometry": {"type": "Point", "coordinates": [85.1628264, 28.3312446]}}, {"id": "GAN6", "type": "Feature", "properties": {"name": "Ganesh VI", "height": 6908, "himal": "GANESH"}, "geometry": {"type": "Point", "coordinates": [85.0614738, 28.3697277]}}, {"id": "GANC", "type": "Feature", "properties": {"name": "Ganchenpo", "alternate_names": ["Fluted Peak", "Ganchempo"], "height": 6378, "himal": "ANNAPURNA"}, "geometry": {"type": "Point", "coordinates": [83.8815063, 28.5894888]}}, {"id": "GAND", "type": "Feature", "properties": {"name": "Gandharva Chuli", "alternate_names": ["Gabelhorn Peak", "Gandharbha"], "height": 6248, "himal": "ANNAPURNA"}, "geometry": {"type": "Point", "coordinates": [83.9622222, 28.5383333]}}, {"id": "GANG", "type": "Feature", "properties": {"name": "Gangapurna", "height": 7455, "himal": "ANNAPURNA"}, "geometry": {"type": "Point", "coordinates": [83.9635144, 28.605655]}}, {"id": "GAUR", "type": "Feature", "properties": {"name": "Gaurishankar", "alternate_names": ["Gauri Sankar", "Gauri Shanker", "Jomo Tseringma"], "height": 7135, "himal": "ROLWALING"}, "geometry": {"type": "Point", "coordinates": [86.3345048, 27.967351]}}, {"id": "GHUN", "type": "Feature", "properties": {"name": "Ghustang North", "alternate_names": ["Ghustung North"], "height": 6529, "himal": "DHAULAGIRI"}, "geometry": {"type": "Point", "coordinates": [83.2472222, 28.6805556]}}, {"id": "GHUS", "type": "Feature", "properties": {"name": "Ghustang South", "alternate_names": ["Ghustung South", "Gurja Himal", "Gurja West", "Paschim Himal"], "height": 6465, "himal": "DHAULAGIRI"}, "geometry": {"type": "Point", "coordinates": [83.275664, 28.6741019]}}, {"id": "GIME", "type": "Feature", "properties": {"name": "Gimmigela Chuli East", "alternate_names": ["Gimigela Chuli", "Twins"], "height": 7007, "himal": "NORTHERN"}, "geometry": {"type": "Point", "coordinates": [88.1611111, 27.7405556]}}, {"id": "GIMM", "type": "Feature", "properties": {"name": "Gimmigela Chuli", "alternate_names": ["Gimigela Chuli", "Gimmigela II", "Twins"], "height": 7350, "himal": "NORTHERN"}, "geometry": {"type": "Point", "coordinates": [88.1779302, 27.7467817]}}, {"id": "GLAC", "type": "Feature", "properties": {"name": "Glacier Dome", "alternate_names": ["Tarke Kang", "Tarke Khang", "Tharke Khang"], "height": 7168, "himal": "ANNAPURNA"}, "geometry": {"type": "Point", "coordinates": [83.886437, 28.6073547]}}, {"id": "GURJ", "type": "Feature", "properties": {"name": "Gurja Himal", "height": 7193, "himal": "DHAULAGIRI"}, "geometry": {"type": "Point", "coordinates": [83.275664, 28.6741019]}}, {"id": "GURK", "type": "Feature", "properties": {"name": "Gurkarpo Ri", "alternate_names": ["Gur Karpo Ri"], "height": 6889, "himal": "JUGAL"}, "geometry": {"type": "Point", "coordinates": [85.7736263, 28.2117364]}}, {"id": "GYAC", "type": "Feature", "properties": {"name": "Gyachung Kang", "alternate_names": ["Gyachung Khang"], "height": 7861, "himal": "KHUMBU"}, "geometry": {"type": "Point", "coordinates": [86.7448435, 28.0980314]}}, {"id": "GYAJ", "type": "Feature", "properties": {"name": "Gyajikang", "alternate_names": ["Gyaji Khang"], "height": 7074, "himal": "PERI"}, "geometry": {"type": "Point", "coordinates": [84.3741667, 28.7330556]}}, {"id": "LEOE", "type": "Feature", "properties": {"name": "Leonpo Gang East", "alternate_names": ["Gyalgen Peak"], "height": 6733, "himal": "JUGAL"}, "geometry": {"type": "Point", "coordinates": [85.8177778, 28.2025]}}, {"id": "HIME", "type": "Feature", "properties": {"name": "Himalchuli East", "alternate_names": ["Himalchuli Main"], "height": 7893, "himal": "MANASLU"}, "geometry": {"type": "Point", "coordinates": [84.6413889, 28.4369444]}}, {"id": "HIML", "type": "Feature", "properties": {"name": "Himlung Himal", "alternate_names": ["Himlung", "Himlung East"], "height": 7126, "himal": "PERI"}, "geometry": {"type": "Point", "coordinates": [84.4217998, 28.7723305]}}, {"id": "HIMN", "type": "Feature", "properties": {"name": "Himalchuli North", "height": 7331, "himal": "MANASLU"}, "geometry": {"type": "Point", "coordinates": [84.6063889, 28.4491667]}}, {"id": "RANI", "type": "Feature", "properties": {"name": "Rani Peak", "alternate_names": ["Himalchuli East", "Himalchuli Northeast", "Lidanda Peak", "Rani Himal"], "height": 6693, "himal": "SAIPAL"}, "geometry": {"type": "Point", "coordinates": [81.5124957, 29.9165574]}}, {"id": "HIMW", "type": "Feature", "properties": {"name": "Himalchuli West", "height": 7540, "himal": "MANASLU"}, "geometry": {"type": "Point", "coordinates": [84.6188889, 28.4355556]}}, {"id": "HIUP", "type": "Feature", "properties": {"name": "Hiunchuli", "alternate_names": ["Hiun Chuli", "Patal Hiunchuli"], "height": 6434, "himal": "ANNAPURNA"}, "geometry": {"type": "Point", "coordinates": [83.85, 28.51]}}, {"id": "HNKU", "type": "Feature", "properties": {"name": "Hongku Chuli", "alternate_names": ["Hunku Chuli", "Pyramid Peak"], "height": 6833, "himal": "BARUN"}, "geometry": {"type": "Point", "coordinates": [87.0119444, 27.8175]}}, {"id": "HONG", "type": "Feature", "properties": {"name": "Hongde", "alternate_names": ["Hangde", "Hongde Himal"], "height": 6556, "himal": "DHAULAGIRI"}, "geometry": {"type": "Point", "coordinates": [83.4967752, 28.843187]}}, {"id": "IMJA", "type": "Feature", "properties": {"name": "Imjatse", "alternate_names": ["Imja Tse", "Island Peak"], "height": 6165, "himal": "KHUMBU"}, "geometry": {"type": "Point", "coordinates": [86.9346925, 27.9200801]}}, {"id": "JAGD", "type": "Feature", "properties": {"name": "Jagdula", "alternate_names": ["Jagdula Peak"], "height": 5761, "himal": "KANJIROBA"}, "geometry": {"type": "Point", "coordinates": [82.5919444, 29.3269444]}}, {"id": "JANU", "type": "Feature", "properties": {"name": "Jannu", "alternate_names": ["Khumbhakarna", "Kumbhakarna"], "height": 7711, "himal": "KUMBHAKARNA"}, "geometry": {"type": "Point", "coordinates": [88.0463889, 27.6822222]}}, {"id": "JETH", "type": "Feature", "properties": {"name": "Jethi Bahurani", "alternate_names": ["Jettiborani", "Jutibofurani"], "height": 6850, "himal": "YOKAPAHAR"}, "geometry": {"type": "Point", "coordinates": [81.0393354, 29.8806741]}}, {"id": "JONG", "type": "Feature", "properties": {"name": "Jongsang", "alternate_names": ["Jhinsang", "Jongsang Peak", "Jongsang Ri", "Jonsong"], "height": 7462, "himal": "JANAK"}, "geometry": {"type": "Point", "coordinates": [88.1349737, 27.8815971]}}, {"id": "KABD", "type": "Feature", "properties": {"name": "Kabru Dome", "alternate_names": ["Kabru"], "height": 6600, "himal": "SINGALILA"}, "geometry": {"type": "Point", "coordinates": [88.1136111, 27.6080556]}}, {"id": "KABN", "type": "Feature", "properties": {"name": "Kabru North", "alternate_names": ["Kabru"], "height": 7338, "himal": "SINGALILA"}, "geometry": {"type": "Point", "coordinates": [88.1176541, 27.6250704]}}, {"id": "KAG1", "type": "Feature", "properties": {"name": "Kagmara I", "alternate_names": ["Kagmara"], "height": 5978, "himal": "KANJIROBA"}, "geometry": {"type": "Point", "coordinates": [82.7613889, 29.1377778]}}, {"id": "KAN1", "type": "Feature", "properties": {"name": "Kande Hiunchuli North  I", "alternate_names": ["Kande Hiun Chuli"], "height": 6521, "himal": "KANJIROBA"}, "geometry": {"type": "Point", "coordinates": [82.5602778, 29.4113889]}}, {"id": "KAN2", "type": "Feature", "properties": {"name": "Kande Hiunchuli North  II", "alternate_names": ["Kande Hiun Chuli"], "height": 6471, "himal": "KANJIROBA"}, "geometry": {"type": "Point", "coordinates": [82.5602778, 29.4113889]}}, {"id": "KANB", "type": "Feature", "properties": {"name": "Kangbachen", "alternate_names": ["Kambachen"], "height": 7902, "himal": "NORTHERN"}, "geometry": {"type": "Point", "coordinates": [88.1127778, 27.7163889]}}, {"id": "KANC", "type": "Feature", "properties": {"name": "Kangchenjunga Central", "alternate_names": ["Kanchenjunga Central"], "height": 8473, "himal": "NORTHERN"}, "geometry": {"type": "Point", "coordinates": [88.1533333, 27.6961111]}}, {"id": "KAND", "type": "Feature", "properties": {"name": "Kande Hiunchuli", "alternate_names": ["Kande Hiuchuli", "Kande Hiun Chuli"], "height": 6627, "himal": "KANJIROBA"}, "geometry": {"type": "Point", "coordinates": [82.5601656, 29.4119774]}}, {"id": "KANG", "type": "Feature", "properties": {"name": "Kangchenjunga", "alternate_names": ["Kanchenjunga Central"], "height": 8586, "himal": "NORTHERN"}, "geometry": {"type": "Point", "coordinates": [88.1533333, 27.6961111]}}, {"id": "KANS", "type": "Feature", "properties": {"name": "Kangchenjunga South", "alternate_names": ["Kanchenjunga South"], "height": 8476, "himal": "NORTHERN"}, "geometry": {"type": "Point", "coordinates": [88.1563889, 27.6922222]}}, {"id": "KARY", "type": "Feature", "properties": {"name": "Karyolung", "height": 6530, "himal": "ROLWALING"}, "geometry": {"type": "Point", "coordinates": [86.6141667, 27.7333333]}}, {"id": "KCHN", "type": "Feature", "properties": {"name": "Kangchung Nup", "alternate_names": ["Cholo", "Kangcho Nup", "Khangchung", "Khangchung Nup", "UIAA Peak"], "height": 6043, "himal": "KHUMBU"}, "geometry": {"type": "Point", "coordinates": [86.7397222, 27.9836111]}}, {"id": "NAYA", "type": "Feature", "properties": {"name": "Naya Kanga", "alternate_names": ["Ghanja La Chuli", "Kangja Chuli"], "height": 5863, "himal": "JUGAL"}, "geometry": {"type": "Point", "coordinates": [85.5483906, 28.168624]}}, {"id": "KGUR", "type": "Feature", "properties": {"name": "Kang Guru", "alternate_names": ["Kang Garu", "Naurgaon"], "height": 6981, "himal": "PERI"}, "geometry": {"type": "Point", "coordinates": [84.3041667, 28.6586111]}}, {"id": "KHAT", "type": "Feature", "properties": {"name": "Khatang", "height": 6790, "himal": "ROLWALING"}, "geometry": {"type": "Point", "coordinates": [86.5983333, 27.7575]}}, {"id": "KHON", "type": "Feature", "properties": {"name": "Khongma Tse", "alternate_names": ["Mehra", "Mehra Peak"], "height": 5798, "himal": "KHUMBU"}, "geometry": {"type": "Point", "coordinates": [86.8505556, 27.9477778]}}, {"id": "KJER", "type": "Feature", "properties": {"name": "Kanjeralwa", "alternate_names": ["Kanchen Ruwa", "Kanjerawa"], "height": 6612, "himal": "KANJIROBA"}, "geometry": {"type": "Point", "coordinates": [82.7897262, 29.2371829]}}, {"id": "KJRN", "type": "Feature", "properties": {"name": "Kanjiroba North", "alternate_names": ["Kanjiroba Himal"], "height": 6858, "himal": "KANJIROBA"}, "geometry": {"type": "Point", "coordinates": [82.66667, 29.41667]}}, {"id": "KJRS", "type": "Feature", "properties": {"name": "Kanjiroba South", "alternate_names": ["Kanjiroba Himal"], "height": 6883, "himal": "KANJIROBA"}, "geometry": {"type": "Point", "coordinates": [82.66667, 29.41667]}}, {"id": "KOTA", "type": "Feature", "properties": {"name": "Kotang", "alternate_names": ["Kokthang", "Kothang Kang"], "height": 6148, "himal": "SINGALILA"}, "geometry": {"type": "Point", "coordinates": [88.0825, 27.5636111]}}, {"id": "KTEG", "type": "Feature", "properties": {"name": "Kangtega", "alternate_names": ["Kang Taiga", "Kantega", "Khangtega"], "height": 6783, "himal": "BARUN"}, "geometry": {"type": "Point", "coordinates": [86.8194444, 27.7925]}}, {"id": "KUSU", "type": "Feature", "properties": {"name": "Kusum Kanguru", "alternate_names": ["Kusum Kang", "Kusum Kangguru", "Lamu"], "height": 6370, "himal": "BARUN"}, "geometry": {"type": "Point", "coordinates": [86.791863, 27.7322274]}}, {"id": "KWAN", "type": "Feature", "properties": {"name": "Kwangde", "height": 6186, "himal": "ROLWALING"}, "geometry": {"type": "Point", "coordinates": [86.6344444, 27.8002778]}}, {"id": "LAMJ", "type": "Feature", "properties": {"name": "Lamjung Himal", "height": 6983, "himal": "ANNAPURNA"}, "geometry": {"type": "Point", "coordinates": [84.1886093, 28.4895076]}}, {"id": "LANG", "type": "Feature", "properties": {"name": "Langtang Lirung", "alternate_names": ["Langtang", "Langtang I"], "height": 7227, "himal": "LANGTANG"}, "geometry": {"type": "Point", "coordinates": [85.5168032, 28.256616]}}, {"id": "LANR", "type": "Feature", "properties": {"name": "Langtang Ri", "height": 7205, "himal": "LANGTANG"}, "geometry": {"type": "Point", "coordinates": [85.6837887, 28.3821284]}}, {"id": "LEON", "type": "Feature", "properties": {"name": "Leonpo Gang", "alternate_names": ["Big White Peak", "Dorje Pahad"], "height": 6979, "himal": "JUGAL"}, "geometry": {"type": "Point", "coordinates": [85.8001908, 28.1964383]}}, {"id": "LHAS", "type": "Feature", "properties": {"name": "Lha Shamma", "alternate_names": ["Lhasharma", "Pinnacle Peak"], "height": 6412, "himal": "KANJIROBA"}, "geometry": {"type": "Point", "coordinates": [82.7472222, 29.2258333]}}, {"id": "LHOT", "type": "Feature", "properties": {"name": "Lhotse", "alternate_names": ["Lhotse Middle"], "height": 8516, "himal": "KHUMBU"}, "geometry": {"type": "Point", "coordinates": [86.9386871, 27.9607748]}}, {"id": "MUKT", "type": "Feature", "properties": {"name": "Mukut Himal", "alternate_names": ["Langru", "Mukot Himal"], "height": 6087, "himal": "DHAULAGIRI"}, "geometry": {"type": "Point", "coordinates": [83.4607345, 28.7797894]}}, {"id": "LNPO", "type": "Feature", "properties": {"name": "Langpo", "alternate_names": ["Langpo Peak", "Longpo"], "height": 6965, "himal": "NORTHERN"}, "geometry": {"type": "Point", "coordinates": [88.1962277, 27.8540227]}}, {"id": "LOBE", "type": "Feature", "properties": {"name": "Lobuje East", "alternate_names": ["Lobuche", "Lobuche East"], "height": 6090, "himal": "KHUMBU"}, "geometry": {"type": "Point", "coordinates": [86.7816135, 27.9691317]}}, {"id": "LOBW", "type": "Feature", "properties": {"name": "Lobuje West", "alternate_names": ["Lobuche", "Lobuche West"], "height": 6135, "himal": "KHUMBU"}, "geometry": {"type": "Point", "coordinates": [86.7816135, 27.9691317]}}, {"id": "LSHR", "type": "Feature", "properties": {"name": "Lhotse Shar", "alternate_names": ["Lhotse II"], "height": 8382, "himal": "KHUMBU"}, "geometry": {"type": "Point", "coordinates": [86.9437467, 27.9587111]}}, {"id": "LSIS", "type": "Feature", "properties": {"name": "Langshisa Ri", "alternate_names": ["Langsisa Ri"], "height": 6412, "himal": "JUGAL"}, "geometry": {"type": "Point", "coordinates": [85.7163889, 28.2169444]}}, {"id": "BTAK", "type": "Feature", "properties": {"name": "Bhairab Takura", "alternate_names": ["Madiya", "Madiya Peak"], "height": 6799, "himal": "JUGAL"}, "geometry": {"type": "Point", "coordinates": [85.8097222, 28.1977778]}}, {"id": "MAK2", "type": "Feature", "properties": {"name": "Makalu II", "alternate_names": ["Kangchug Tse", "Kangchungtse"], "height": 7678, "himal": "MAKALU"}, "geometry": {"type": "Point", "coordinates": [87.0804271, 27.9140498]}}, {"id": "MAKA", "type": "Feature", "properties": {"name": "Makalu", "alternate_names": ["Makalu I", "Makalu II"], "height": 8485, "himal": "MAKALU"}, "geometry": {"type": "Point", "coordinates": [87.0804271, 27.9140498]}}, {"id": "MANA", "type": "Feature", "properties": {"name": "Manaslu", "alternate_names": ["Kutang I", "Peak 30"], "height": 8163, "himal": "MANASLU"}, "geometry": {"type": "Point", "coordinates": [84.5616667, 28.5502778]}}, {"id": "MANN", "type": "Feature", "properties": {"name": "Manaslu North", "alternate_names": ["Manaslu II"], "height": 6994, "himal": "MANASLU"}, "geometry": {"type": "Point", "coordinates": [84.5505556, 28.5777778]}}, {"id": "MANP", "type": "Feature", "properties": {"name": "Manapathi", "height": 6380, "himal": "DHAULAGIRI"}, "geometry": {"type": "Point", "coordinates": [83.4588889, 28.6455556]}}, {"id": "MARD", "type": "Feature", "properties": {"name": "Mardi Himal", "height": 5553, "himal": "ANNAPURNA"}, "geometry": {"type": "Point", "coordinates": [83.9275346, 28.4737691]}}, {"id": "MERA", "type": "Feature", "properties": {"name": "Mera Peak", "alternate_names": ["\"False\" Mera Peak"], "height": 6470, "himal": "BARUN"}, "geometry": {"type": "Point", "coordinates": [86.8686622, 27.7098398]}}, {"id": "NALA", "type": "Feature", "properties": {"name": "Nalakankar North", "alternate_names": ["Nala Kankar"], "height": 6062, "himal": "NALAKANKAR"}, "geometry": {"type": "Point", "coordinates": [81.4013889, 30.3575]}}, {"id": "NAMP", "type": "Feature", "properties": {"name": "Nampa", "alternate_names": ["Chisel Peak"], "height": 6729, "himal": "YOKAPAHAR"}, "geometry": {"type": "Point", "coordinates": [80.9969444, 30.0041667]}}, {"id": "NCHU", "type": "Feature", "properties": {"name": "Nupchu", "alternate_names": ["Sharphu IV"], "height": 6172, "himal": "JANAK"}, "geometry": {"type": "Point", "coordinates": [87.9202778, 27.8152778]}}, {"id": "NEMJ", "type": "Feature", "properties": {"name": "Nemjung", "height": 7140, "himal": "PERI"}, "geometry": {"type": "Point", "coordinates": [84.4180556, 28.7569444]}}, {"id": "NEPA", "type": "Feature", "properties": {"name": "Nepal Peak", "height": 7177, "himal": "NORTHERN"}, "geometry": {"type": "Point", "coordinates": [88.1852778, 27.7763889]}}, {"id": "NGO2", "type": "Feature", "properties": {"name": "Ngojumba Kang II", "alternate_names": ["Ngojumba Kang", "Ngojumba Khang II"], "height": 7743, "himal": "KHUMBU"}, "geometry": {"type": "Point", "coordinates": [86.6850856, 28.1068465]}}, {"id": "NGOJ", "type": "Feature", "properties": {"name": "Ngojumba Kang I", "alternate_names": ["Ngojumba Kang", "Ngojumba Khang II", "Ngozumba Kang", "Ngozumba Ri", "Tenzing Peak"], "height": 7916, "himal": "KHUMBU"}, "geometry": {"type": "Point", "coordinates": [86.6850856, 28.1068465]}}, {"id": "NILC", "type": "Feature", "properties": {"name": "Nilgiri Central", "height": 6940, "himal": "ANNAPURNA"}, "geometry": {"type": "Point", "coordinates": [83.7353837, 28.6783794]}}, {"id": "NILN", "type": "Feature", "properties": {"name": "Nilgiri North", "height": 7061, "himal": "ANNAPURNA"}, "geometry": {"type": "Point", "coordinates": [83.7440554, 28.689076]}}, {"id": "NILS", "type": "Feature", "properties": {"name": "Nilgiri South", "height": 6839, "himal": "ANNAPURNA"}, "geometry": {"type": "Point", "coordinates": [83.7296456, 28.6541082]}}, {"id": "NUMB", "type": "Feature", "properties": {"name": "Numbur", "height": 6958, "himal": "ROLWALING"}, "geometry": {"type": "Point", "coordinates": [86.572647, 27.7542227]}}, {"id": "NUPT", "type": "Feature", "properties": {"name": "Nuptse", "alternate_names": ["Nuptse I"], "height": 7864, "himal": "KHUMBU"}, "geometry": {"type": "Point", "coordinates": [86.887081, 27.9679586]}}, {"id": "OHMI", "type": "Feature", "properties": {"name": "Ohmi Kangri", "height": 6839, "himal": "JANAK"}, "geometry": {"type": "Point", "coordinates": [87.9666667, 27.8972222]}}, {"id": "PALD", "type": "Feature", "properties": {"name": "Paldor", "alternate_names": ["Bharange", "Paldor Peak"], "height": 5903, "himal": "GANESH"}, "geometry": {"type": "Point", "coordinates": [85.1871278, 28.2776048]}}, {"id": "PANG", "type": "Feature", "properties": {"name": "Pangbuk Ri", "height": 6625, "himal": "ROLWALING"}, "geometry": {"type": "Point", "coordinates": [86.5222222, 28.0052778]}}, {"id": "PARC", "type": "Feature", "properties": {"name": "Parchamo", "alternate_names": ["Pachermo", "Parchemuche", "Parchermo", "Pharchamo"], "height": 6279, "himal": "ROLWALING"}, "geometry": {"type": "Point", "coordinates": [86.5472278, 27.8377252]}}, {"id": "PATR", "type": "Feature", "properties": {"name": "Patrasi Himal", "alternate_names": ["Kande Hiunchuli North", "Patrasi"], "height": 6450, "himal": "KANJIROBA"}, "geometry": {"type": "Point", "coordinates": [82.5925, 29.4211111]}}, {"id": "PETH", "type": "Feature", "properties": {"name": "Pethangtse", "height": 6739, "himal": "MAKALU"}, "geometry": {"type": "Point", "coordinates": [87.0152042, 27.957236]}}, {"id": "PHUR", "type": "Feature", "properties": {"name": "Phurbi Chhyachu", "alternate_names": ["Phurbi Chyachu", "Phurbi Ghyachu"], "height": 6637, "himal": "JUGAL"}, "geometry": {"type": "Point", "coordinates": [85.8674922, 28.1260087]}}, {"id": "PIMU", "type": "Feature", "properties": {"name": "Pimu", "alternate_names": ["Pama Himal", "Pamalka"], "height": 6344, "himal": "SERANG"}, "geometry": {"type": "Point", "coordinates": [84.9511111, 28.5802778]}}, {"id": "PISA", "type": "Feature", "properties": {"name": "Pisang", "alternate_names": ["Jong Ri"], "height": 6091, "himal": "DAMODAR"}, "geometry": {"type": "Point", "coordinates": [84.1880793, 28.6490051]}}, {"id": "PK29", "type": "Feature", "properties": {"name": "Peak 29", "alternate_names": ["Dakura", "Dr Harka Gurung Chuli", "Dr. Harka Gurung Chuli", "Ngadi Chuli"], "height": 7871, "himal": "MANASLU"}, "geometry": {"type": "Point", "coordinates": [84.5672489, 28.5039267]}}, {"id": "POKA", "type": "Feature", "properties": {"name": "Pokalde", "alternate_names": ["Pokhalde"], "height": 5780, "himal": "KHUMBU"}, "geometry": {"type": "Point", "coordinates": [86.8331902, 27.9247682]}}, {"id": "OMBG", "type": "Feature", "properties": {"name": "Ombigaichen", "alternate_names": ["Puma Dablam"], "height": 6340, "himal": "BARUN"}, "geometry": {"type": "Point", "coordinates": [86.8858333, 27.8525]}}, {"id": "PUMO", "type": "Feature", "properties": {"name": "Pumori", "height": 7138, "himal": "KHUMBU"}, "geometry": {"type": "Point", "coordinates": [86.8273988, 28.0160417]}}, {"id": "PUTH", "type": "Feature", "properties": {"name": "Putha Hiunchuli", "alternate_names": ["Dhaulagiri", "Dhaulagiri VII"], "height": 7246, "himal": "DHAULAGIRI"}, "geometry": {"type": "Point", "coordinates": [83.4894884, 28.6976088]}}, {"id": "PYRM", "type": "Feature", "properties": {"name": "Pyramid Peak", "alternate_names": ["Pathibhara Chuli", "Pathibhara Khas"], "height": 7140, "himal": "NORTHERN"}, "geometry": {"type": "Point", "coordinates": [88.1758333, 27.8205556]}}, {"id": "RAKS", "type": "Feature", "properties": {"name": "Raksha Urai", "alternate_names": ["Raksha Urai III"], "height": 6609, "himal": "YOKAPAHAR"}, "geometry": {"type": "Point", "coordinates": [81.1288889, 30.0058333]}}, {"id": "RAMD", "type": "Feature", "properties": {"name": "Ramdung", "alternate_names": ["Ramdong Go"], "height": 5900, "himal": "ROLWALING"}, "geometry": {"type": "Point", "coordinates": [86.4336111, 27.8186111]}}, {"id": "RATH", "type": "Feature", "properties": {"name": "Rathong", "height": 6682, "himal": "SINGALILA"}, "geometry": {"type": "Point", "coordinates": [88.0897953, 27.5946131]}}, {"id": "ROCN", "type": "Feature", "properties": {"name": "Roc Noir", "alternate_names": ["Khang Sar Khang", "Khangsar Kang"], "height": 7485, "himal": "ANNAPURNA"}, "geometry": {"type": "Point", "coordinates": [83.8629012, 28.6108141]}}, {"id": "ROKA", "type": "Feature", "properties": {"name": "Rokapi", "alternate_names": ["Kap Chuli", "Kapchuli"], "height": 6468, "himal": "YOKAPAHAR"}, "geometry": {"type": "Point", "coordinates": [81.0402778, 29.8477778]}}, {"id": "SAIE", "type": "Feature", "properties": {"name": "Saipal East Humla", "height": 6925, "himal": "SAIPAL"}, "geometry": {"type": "Point", "coordinates": [81.5005556, 29.8911111]}}, {"id": "SAIP", "type": "Feature", "properties": {"name": "Saipal", "height": 7030, "himal": "SAIPAL"}, "geometry": {"type": "Point", "coordinates": [81.4934831, 29.8881313]}}, {"id": "SHAR", "type": "Feature", "properties": {"name": "Shartse", "alternate_names": ["Peak 38", "Shanti Shikhar", "Shar Tse II", "Shartse II"], "height": 7591, "himal": "KHUMBU"}, "geometry": {"type": "Point", "coordinates": [86.9646815, 27.9556165]}}, {"id": "SHA2", "type": "Feature", "properties": {"name": "Shartse II", "alternate_names": ["Junction Peak", "Shar Tse II"], "height": 7457, "himal": "KHUMBU"}, "geometry": {"type": "Point", "coordinates": [86.9646815, 27.9556165]}}, {"id": "SHEY", "type": "Feature", "properties": {"name": "Shey Shikhar", "alternate_names": ["Junction Peak"], "height": 6139, "himal": "KANJIROBA"}, "geometry": {"type": "Point", "coordinates": [82.7972222, 29.2869444]}}, {"id": "SING", "type": "Feature", "properties": {"name": "Singu Chuli", "alternate_names": ["Fluted Peak"], "height": 6501, "himal": "ANNAPURNA"}, "geometry": {"type": "Point", "coordinates": [83.8815063, 28.5894888]}}, {"id": "SISN", "type": "Feature", "properties": {"name": "Sisne Himal", "alternate_names": ["Hiunchuli Patan", "Sisne"], "height": 5911, "himal": "GORAKH"}, "geometry": {"type": "Point", "coordinates": [82.3532695, 29.7561396]}}, {"id": "SITA", "type": "Feature", "properties": {"name": "Sita Chuchura", "height": 6611, "himal": "DHAULAGIRI"}, "geometry": {"type": "Point", "coordinates": [83.4838316, 28.782078]}}, {"id": "SPHN", "type": "Feature", "properties": {"name": "Sphinx", "alternate_names": ["Pathibhara East", "Pathibhara Phurba"], "height": 6825, "himal": "NORTHERN"}, "geometry": {"type": "Point", "coordinates": [88.1902778, 27.825]}}, {"id": "SPH1", "type": "Feature", "properties": {"name": "Sharphu I", "alternate_names": ["Tanga I"], "height": 6433, "himal": "JANAK"}, "geometry": {"type": "Point", "coordinates": [87.9197222, 27.7522222]}}, {"id": "SURM", "type": "Feature", "properties": {"name": "Surma-Sarovar North", "height": 6564, "himal": "YOKAPAHAR"}, "geometry": {"type": "Point", "coordinates": [81.0855556, 29.8352778]}}, {"id": "TAWO", "type": "Feature", "properties": {"name": "Tawoche", "alternate_names": ["Taboche"], "height": 6495, "himal": "KHUMBU"}, "geometry": {"type": "Point", "coordinates": [86.7793702, 27.8973138]}}, {"id": "KIRA", "type": "Feature", "properties": {"name": "Kirat Chuli", "alternate_names": ["Tent Peak"], "height": 7362, "himal": "NORTHERN"}, "geometry": {"type": "Point", "coordinates": [88.1971372, 27.7914626]}}, {"id": "THAM", "type": "Feature", "properties": {"name": "Thamserku", "alternate_names": ["Tramserku"], "height": 6618, "himal": "BARUN"}, "geometry": {"type": "Point", "coordinates": [86.785298, 27.7898577]}}, {"id": "THAR", "type": "Feature", "properties": {"name": "Tharpu Chuli", "alternate_names": ["Tent Peak"], "height": 5695, "himal": "ANNAPURNA"}, "geometry": {"type": "Point", "coordinates": [83.8894197, 28.5619937]}}, {"id": "TILI", "type": "Feature", "properties": {"name": "Tilicho", "alternate_names": ["Tilicho Peak", "Tilitso"], "height": 7134, "himal": "ANNAPURNA"}, "geometry": {"type": "Point", "coordinates": [83.8114833, 28.6826518]}}, {"id": "TLNG", "type": "Feature", "properties": {"name": "Talung", "height": 7349, "himal": "SINGALILA"}, "geometry": {"type": "Point", "coordinates": [88.1301939, 27.6548025]}}, {"id": "TONG", "type": "Feature", "properties": {"name": "Tongu", "alternate_names": ["Hongu", "Sura Peak", "Tongu Himal"], "height": 6187, "himal": "DHAULAGIRI"}, "geometry": {"type": "Point", "coordinates": [83.5033761, 28.8714693]}}, {"id": "TRIP", "type": "Feature", "properties": {"name": "Tripura Hiunchuli", "alternate_names": ["Hanging Glacier Peak", "Tripura Hiun Chuli", "Tripura Thumba"], "height": 6553, "himal": "KANJIROBA"}, "geometry": {"type": "Point", "coordinates": [82.7375, 29.3263889]}}, {"id": "TSOK", "type": "Feature", "properties": {"name": "Tso Karpo Kang", "alternate_names": ["Tso Karpo Khang"], "height": 6556, "himal": "KANJIROBA"}, "geometry": {"type": "Point", "coordinates": [82.7808333, 29.3680556]}}, {"id": "TUKU", "type": "Feature", "properties": {"name": "Tukuche", "alternate_names": ["Tukuche Peak"], "height": 6920, "himal": "DHAULAGIRI"}, "geometry": {"type": "Point", "coordinates": [83.557406, 28.7449534]}}, {"id": "URKM", "type": "Feature", "properties": {"name": "Urkinmang", "alternate_names": ["Buddha", "Urkenmang", "Urkinmag"], "height": 6143, "himal": "JUGAL"}, "geometry": {"type": "Point", "coordinates": [85.7126984, 28.1685545]}}, {"id": "ANID", "type": "Feature", "properties": {"name": "Anidesh Chuli", "alternate_names": ["White Wave", "White Wave Peak"], "height": 6808, "himal": "NORTHERN"}, "geometry": {"type": "Point", "coordinates": [88.0708333, 27.7186111]}}, {"id": "TSUR", "type": "Feature", "properties": {"name": "Tsaurabong Peak", "alternate_names": ["Anidesh Chuli", "Chara Ban Peak", "White Peak", "White Wave"], "height": 6395, "himal": "DHAULAGIRI"}, "geometry": {"type": "Point", "coordinates": [83.379961, 28.6891711]}}, {"id": "YALU", "type": "Feature", "properties": {"name": "Yalung Kang", "alternate_names": ["Yalung Khang", "Yalungkar"], "height": 8505, "himal": "NORTHERN"}, "geometry": {"type": "Point", "coordinates": [88.1386111, 27.705]}}, {"id": "PASA", "type": "Feature", "properties": {"name": "Pasang Lhamu Chuli", "alternate_names": ["Jasemba"], "height": 7350, "himal": "KHUMBU"}, "geometry": {"type": "Point", "coordinates": [86.6124231, 28.0729512]}}, {"id": "RATC", "type": "Feature", "properties": {"name": "Ratna Chuli", "height": 7035, "himal": "PERI"}, "geometry": {"type": "Point", "coordinates": [84.3772222, 28.8644444]}}, {"id": "KANT", "type": "Feature", "properties": {"name": "Kanti Himal", "alternate_names": ["Kanti Himal East", "Kaqur Kangri", "Kubi Grangri", "Ronglai Kangri"], "height": 6850, "himal": "KANTI"}, "geometry": {"type": "Point", "coordinates": [82.7022222, 29.8530556]}}, {"id": "RAMT", "type": "Feature", "properties": {"name": "Ramtang", "height": 6601, "himal": "NORTHERN"}, "geometry": {"type": "Point", "coordinates": [88.0958333, 27.7508333]}}, {"id": "LING", "type": "Feature", "properties": {"name": "Lingtren", "height": 6713, "himal": "KHUMBU"}, "geometry": {"type": "Point", "coordinates": [86.8546651, 28.0278017]}}, {"id": "TENG", "type": "Feature", "properties": {"name": "Tengkoma", "alternate_names": ["Tang Kongma"], "height": 6215, "himal": "JANAK"}, "geometry": {"type": "Point", "coordinates": [88.0766667, 27.8083333]}}, {"id": "RAMC", "type": "Feature", "properties": {"name": "Ramtang Chang", "alternate_names": ["Chang Himal", "Ramtang", "Wedge Peak"], "height": 6802, "himal": "NORTHERN"}, "geometry": {"type": "Point", "coordinates": [88.0958333, 27.7508333]}}, {"id": "CHRE", "type": "Feature", "properties": {"name": "Churen Himal East", "alternate_names": ["Churen"], "height": 7371, "himal": "DHAULAGIRI"}, "geometry": {"type": "Point", "coordinates": [83.2122222, 28.7322222]}}, {"id": "CHRW", "type": "Feature", "properties": {"name": "Churen Himal West", "alternate_names": ["Churen"], "height": 7371, "himal": "DHAULAGIRI"}, "geometry": {"type": "Point", "coordinates": [83.2122222, 28.7322222]}}, {"id": "CHRI", "type": "Feature", "properties": {"name": "Chhukung Ri", "alternate_names": ["Chhukung Chuli"], "height": 5550, "himal": "KHUMBU"}, "geometry": {"type": "Point", "coordinates": [86.8772222, 27.9388889]}}, {"id": "KTOK", "type": "Feature", "properties": {"name": "Kangtokal", "alternate_names": ["Khang Tokal"], "height": 6294, "himal": "DHAULAGIRI"}, "geometry": {"type": "Point", "coordinates": [83.1686111, 28.7997222]}}, {"id": "NALS", "type": "Feature", "properties": {"name": "Nalakankar South", "alternate_names": ["Nala Kankar"], "height": 6024, "himal": "NALAKANKAR"}, "geometry": {"type": "Point", "coordinates": [81.4013889, 30.3575]}}, {"id": "CHWT", "type": "Feature", "properties": {"name": "Changwathang", "height": 6130, "himal": "NALAKANKAR"}, "geometry": {"type": "Point", "coordinates": [81.8883333, 30.3263889]}}, {"id": "TAKP", "type": "Feature", "properties": {"name": "Takphu Himal", "height": 6395, "himal": "NALAKANKAR"}, "geometry": {"type": "Point", "coordinates": [81.4177778, 30.2838889]}}, {"id": "MALA", "type": "Feature", "properties": {"name": "Malanphulan", "alternate_names": ["Hinku Ri", "Melanphulan"], "height": 6573, "himal": "BARUN"}, "geometry": {"type": "Point", "coordinates": [86.8722222, 27.8027778]}}, {"id": "LHOM", "type": "Feature", "properties": {"name": "Lhotse Middle", "alternate_names": ["Lhotse Intermediate"], "height": 8410, "himal": "KHUMBU"}, "geometry": {"type": "Point", "coordinates": [86.9386871, 27.9607748]}}, {"id": "SIMN", "type": "Feature", "properties": {"name": "Simnang Himal", "alternate_names": ["P2", "Simnang Himal East"], "height": 6251, "himal": "MANASLU"}, "geometry": {"type": "Point", "coordinates": [84.5972222, 28.5163889]}}, {"id": "HCHI", "type": "Feature", "properties": {"name": "Hungchhi", "alternate_names": ["Chakung", "Gyuba Tshomotse", "Gyubanare Kang", "Hunchhi"], "height": 7029, "himal": "KHUMBU"}, "geometry": {"type": "Point", "coordinates": [86.7611111, 28.0347222]}}, {"id": "LAMP", "type": "Feature", "properties": {"name": "Lampo", "alternate_names": ["Ganesh VI", "Langpo Kangri"], "height": 6648, "himal": "GANESH"}, "geometry": {"type": "Point", "coordinates": [85.0614738, 28.3697277]}}, {"id": "CHUK", "type": "Feature", "properties": {"name": "Chhukung Tse", "alternate_names": ["Chhukung Chuli"], "height": 5833, "himal": "KHUMBU"}, "geometry": {"type": "Point", "coordinates": [86.8772222, 27.9388889]}}, {"id": "DZAN", "type": "Feature", "properties": {"name": "Dzanye", "alternate_names": ["Dzanaye", "Dzanye II"], "height": 6581, "himal": "JANAK"}, "geometry": {"type": "Point", "coordinates": [88.0411111, 27.9022222]}}, {"id": "GAUG", "type": "Feature", "properties": {"name": "Gaugiri", "height": 6110, "himal": "DAMODAR"}, "geometry": {"type": "Point", "coordinates": [84.19, 29.0452778]}}, {"id": "TKPO", "type": "Feature", "properties": {"name": "Tengkangpoche", "alternate_names": ["Thyangmoche"], "height": 6482, "himal": "ROLWALING"}, "geometry": {"type": "Point", "coordinates": [86.5986111, 27.8038889]}}, {"id": "ARNK", "type": "Feature", "properties": {"name": "Arniko Chuli", "alternate_names": ["Araniko Chuli"], "height": 6034, "himal": "MUSTANG"}, "geometry": {"type": "Point", "coordinates": [83.6594444, 29.1761111]}}, {"id": "SARI", "type": "Feature", "properties": {"name": "Saribung", "alternate_names": ["Saribung Peak", "Selibung"], "height": 6328, "himal": "DAMODAR"}, "geometry": {"type": "Point", "coordinates": [84.1719123, 28.885]}}, {"id": "GHEN", "type": "Feature", "properties": {"name": "Ghenge Liru", "alternate_names": ["Ghenye Liru", "Ghenye Lirung", "Langtang I", "Langtang II"], "height": 6596, "himal": "LANGTANG"}, "geometry": {"type": "Point", "coordinates": [85.5168032, 28.256616]}}, {"id": "NAUL", "type": "Feature", "properties": {"name": "Naulekh", "height": 6340, "himal": "BARUN"}, "geometry": {"type": "Point", "coordinates": [86.9024898, 27.6875828]}}, {"id": "CHEK", "type": "Feature", "properties": {"name": "Chekigo", "height": 6121, "himal": "ROLWALING"}, "geometry": {"type": "Point", "coordinates": [86.4136111, 27.9063889]}}, {"id": "KTUN", "type": "Feature", "properties": {"name": "Khatung Khang", "alternate_names": ["Khatung Kang"], "height": 6484, "himal": "DAMODAR"}, "geometry": {"type": "Point", "coordinates": [83.9182918, 28.7777768]}}, {"id": "CHAG", "type": "Feature", "properties": {"name": "Chago", "height": 6893, "himal": "MAKALU"}, "geometry": {"type": "Point", "coordinates": [87.0563889, 27.9261111]}}, {"id": "NUMR", "type": "Feature", "properties": {"name": "Numri", "height": 6635, "himal": "BARUN"}, "geometry": {"type": "Point", "coordinates": [86.9758333, 27.8952778]}}, {"id": "KYAZ", "type": "Feature", "properties": {"name": "Kyazo Ri", "alternate_names": ["Kyajo Ri", "Kyajori"], "height": 6151, "himal": "KHUMBU"}, "geometry": {"type": "Point", "coordinates": [86.6697903, 27.9090478]}}, {"id": "PAND", "type": "Feature", "properties": {"name": "Pandra", "height": 6670, "himal": "JANAK"}, "geometry": {"type": "Point", "coordinates": [87.9952778, 27.8644444]}}, {"id": "DANG", "type": "Feature", "properties": {"name": "Danga", "height": 6220, "himal": "JANAK"}, "geometry": {"type": "Point", "coordinates": [87.9786111, 27.8169444]}}, {"id": "POKR", "type": "Feature", "properties": {"name": "Pokharkang", "alternate_names": ["Pokhar Khang"], "height": 6372, "himal": "DAMODAR"}, "geometry": {"type": "Point", "coordinates": [84.2288889, 28.8127778]}}, {"id": "NAG1", "type": "Feature", "properties": {"name": "Nangpai Gosum I", "alternate_names": ["Cho Aui", "Nagpai Gosum I"], "height": 7321, "himal": "KHUMBU"}, "geometry": {"type": "Point", "coordinates": [86.6377778, 28.0705556]}}, {"id": "KGRI", "type": "Feature", "properties": {"name": "Khangri Shar", "height": 6792, "himal": "KHUMBU"}, "geometry": {"type": "Point", "coordinates": [86.8152778, 28.0188889]}}, {"id": "KGRW", "type": "Feature", "properties": {"name": "Khangri West", "height": 6658, "himal": "KHUMBU"}, "geometry": {"type": "Point", "coordinates": [86.7975, 28.0205556]}}, {"id": "PURB", "type": "Feature", "properties": {"name": "Purbung Himal", "alternate_names": ["Purbung", "Putrung"], "height": 6500, "himal": "DAMODAR"}, "geometry": {"type": "Point", "coordinates": [84.0205556, 28.8013889]}}, {"id": "TASH", "type": "Feature", "properties": {"name": "Tashi Kang", "alternate_names": ["Tashi Khang"], "height": 6386, "himal": "DHAULAGIRI"}, "geometry": {"type": "Point", "coordinates": [83.6313889, 28.8530556]}}, {"id": "TENR", "type": "Feature", "properties": {"name": "Tengi Ragi Tau", "alternate_names": ["Agole", "Angole"], "height": 6938, "himal": "ROLWALING"}, "geometry": {"type": "Point", "coordinates": [86.5563889, 27.8572222]}}, {"id": "KYAS", "type": "Feature", "properties": {"name": "Kyashar", "alternate_names": ["Peak 43", "Tangnag Tseng"], "height": 6770, "himal": "BARUN"}, "geometry": {"type": "Point", "coordinates": [86.8223253, 27.7548759]}}, {"id": "NREK", "type": "Feature", "properties": {"name": "Nirekha", "alternate_names": ["Nirekha Peak"], "height": 6159, "himal": "KHUMBU"}, "geometry": {"type": "Point", "coordinates": [86.7652778, 27.9775]}}, {"id": "NORB", "type": "Feature", "properties": {"name": "Norbu Kang", "alternate_names": ["Norbu Khang"], "height": 6085, "himal": "DOLPO"}, "geometry": {"type": "Point", "coordinates": [83.0747222, 29.1191667]}}, {"id": "LNKE", "type": "Feature", "properties": {"name": "Lunchhung Kamo East", "alternate_names": ["Lungchhung"], "height": 6024, "himal": "PALCHUNGHAMGA"}, "geometry": {"type": "Point", "coordinates": [83.1222222, 29.6283333]}}, {"id": "LIK1", "type": "Feature", "properties": {"name": "Linkhu Chuli Shar", "alternate_names": ["Bigphera-Go Shar", "Likhu Chuli I", "Linkhu Chuli I", "Pig Pherago Shar", "Pigpferago Shar"], "height": 6719, "himal": "ROLWALING"}, "geometry": {"type": "Point", "coordinates": [86.5447222, 27.8111111]}}, {"id": "LIK2", "type": "Feature", "properties": {"name": "Linkhu Chuli Nup", "alternate_names": ["Bigphera-Go Nup", "Likhu Chuli II", "Linkhu Chuli II", "Pig Pherago Nup", "Pigpferago Nup"], "height": 6659, "himal": "ROLWALING"}, "geometry": {"type": "Point", "coordinates": [86.5261111, 27.805]}}, {"id": "PANT", "type": "Feature", "properties": {"name": "Panalotapa", "alternate_names": ["Paniyo Tapa", "Paniyo Tippa", "Paniyotippa"], "height": 6687, "himal": "ROLWALING"}, "geometry": {"type": "Point", "coordinates": [86.5697222, 27.8041667]}}, {"id": "SHAL", "type": "Feature", "properties": {"name": "Shalbachum", "alternate_names": ["Phrul Rangtshan Ri", "Salbachum"], "height": 6707, "himal": "LANGTANG"}, "geometry": {"type": "Point", "coordinates": [85.6311335, 28.2710295]}}, {"id": "KHUM", "type": "Feature", "properties": {"name": "Khumbutse", "alternate_names": ["Khumbu Tse"], "height": 6639, "himal": "KHUMBU"}, "geometry": {"type": "Point", "coordinates": [86.872193, 28.0219052]}}, {"id": "BOKT", "type": "Feature", "properties": {"name": "Boktoh", "alternate_names": ["Bokta", "Bokta Peak"], "height": 6114, "himal": "KUMBHAKARNA"}, "geometry": {"type": "Point", "coordinates": [88.0069444, 27.6208333]}}, {"id": "MOJC", "type": "Feature", "properties": {"name": "Mojca", "alternate_names": ["Mojka", "Mojka Peak"], "height": 6024, "himal": "NORTHERN"}, "geometry": {"type": "Point", "coordinates": [88.0505556, 27.7705556]}}, {"id": "PLNG", "type": "Feature", "properties": {"name": "Palung", "alternate_names": ["Palung Ri", "Yalung Ri"], "height": 7012, "himal": "ROLWALING"}, "geometry": {"type": "Point", "coordinates": [86.4144444, 27.8530556]}}, {"id": "TUTS", "type": "Feature", "properties": {"name": "Tutse", "alternate_names": ["Nephu", "Peak 6"], "height": 6758, "himal": "BARUN"}, "geometry": {"type": "Point", "coordinates": [87.1013889, 27.7719444]}}, {"id": "NUPE", "type": "Feature", "properties": {"name": "Nuptse East I", "alternate_names": ["Nuptse", "Nuptse I"], "height": 7795, "himal": "KHUMBU"}, "geometry": {"type": "Point", "coordinates": [86.887081, 27.9679586]}}, {"id": "AMOT", "type": "Feature", "properties": {"name": "Amotsang", "alternate_names": ["Amatson"], "height": 6393, "himal": "DAMODAR"}, "geometry": {"type": "Point", "coordinates": [84.1725, 28.8347222]}}, {"id": "YANS", "type": "Feature", "properties": {"name": "Yansa Tsenji", "alternate_names": ["Dhagpache", "Dragpoche"], "height": 6567, "himal": "LANGTANG"}, "geometry": {"type": "Point", "coordinates": [85.6083333, 28.2563889]}}, {"id": "HIMJ", "type": "Feature", "properties": {"name": "Himjung", "alternate_names": ["Nemjung Goth"], "height": 7092, "himal": "PERI"}, "geometry": {"type": "Point", "coordinates": [84.4197222, 28.7363889]}}, {"id": "AMPH", "type": "Feature", "properties": {"name": "Amphu I", "height": 6740, "himal": "BARUN"}, "geometry": {"type": "Point", "coordinates": [86.9555556, 27.8702778]}}, {"id": "CHAB", "type": "Feature", "properties": {"name": "Chabuk", "alternate_names": ["Tsajirip"], "height": 6792, "himal": "JANAK"}, "geometry": {"type": "Point", "coordinates": [87.9875, 27.8858333]}}, {"id": "CHAK", "type": "Feature", "properties": {"name": "Chako", "height": 6704, "himal": "DAMODAR"}, "geometry": {"type": "Point", "coordinates": [84.2886111, 28.8805556]}}, {"id": "DOMK", "type": "Feature", "properties": {"name": "Dome Kang", "alternate_names": ["Dome Khang"], "height": 7264, "himal": "JANAK"}, "geometry": {"type": "Point", "coordinates": [88.15, 27.8766667]}}, {"id": "GHAN", "type": "Feature", "properties": {"name": "Ghhanyala Hies", "alternate_names": ["Ghanyala Hies"], "height": 6744, "himal": "JANAK"}, "geometry": {"type": "Point", "coordinates": [88.0827778, 27.8955556]}}, {"id": "HUNK", "type": "Feature", "properties": {"name": "Hunku", "alternate_names": ["Hunku Chuli"], "height": 6119, "himal": "BARUN"}, "geometry": {"type": "Point", "coordinates": [87.0119444, 27.8175]}}, {"id": "JANK", "type": "Feature", "properties": {"name": "Janak Chuli", "alternate_names": ["Janak", "Outlier"], "height": 7041, "himal": "JANAK"}, "geometry": {"type": "Point", "coordinates": [88.0933333, 27.8716667]}}, {"id": "KABS", "type": "Feature", "properties": {"name": "Kabru South", "alternate_names": ["Kabru"], "height": 7318, "himal": "SINGALILA"}, "geometry": {"type": "Point", "coordinates": [88.1176541, 27.6250704]}}, {"id": "KABR", "type": "Feature", "properties": {"name": "Kabru Main", "alternate_names": ["Kabru", "Kabru Central"], "height": 7412, "himal": "SINGALILA"}, "geometry": {"type": "Point", "coordinates": [88.1176541, 27.6250704]}}, {"id": "LASH", "type": "Feature", "properties": {"name": "Lashar I", "alternate_names": ["Loshar I"], "height": 6842, "himal": "JANAK"}, "geometry": {"type": "Point", "coordinates": [88.0566667, 27.8961111]}}, {"id": "LAS2", "type": "Feature", "properties": {"name": "Lashar II", "alternate_names": ["Loshar II"], "height": 6803, "himal": "JANAK"}, "geometry": {"type": "Point", "coordinates": [88.0669444, 27.8861111]}}, {"id": "NAG2", "type": "Feature", "properties": {"name": "Nangpai Gosum II", "alternate_names": ["Chamar", "Nagpai Gosum II"], "height": 7287, "himal": "SERANG"}, "geometry": {"type": "Point", "coordinates": [84.9437234, 28.5550852]}}, {"id": "NANG", "type": "Feature", "properties": {"name": "Nangamari I", "height": 6547, "himal": "JANAK"}, "geometry": {"type": "Point", "coordinates": [87.8686111, 27.9105556]}}, {"id": "PANB", "type": "Feature", "properties": {"name": "Panbari", "height": 6905, "himal": "PERI"}, "geometry": {"type": "Point", "coordinates": [84.4838889, 28.7183333]}}, {"id": "PHNH", "type": "Feature", "properties": {"name": "Phungi Himal", "height": 6538, "himal": "MANASLU"}, "geometry": {"type": "Point", "coordinates": [84.4858333, 28.5544444]}}, {"id": "MARI", "type": "Feature", "properties": {"name": "Mariyang", "height": 6528, "himal": "PALCHUNGHAMGA"}, "geometry": {"type": "Point", "coordinates": [82.8888889, 29.6933333]}}, {"id": "TKRG", "type": "Feature", "properties": {"name": "Takargo", "alternate_names": ["Dragker-go"], "height": 6771, "himal": "ROLWALING"}, "geometry": {"type": "Point", "coordinates": [86.5116667, 27.8747222]}}, {"id": "THUL", "type": "Feature", "properties": {"name": "Thulagi", "alternate_names": ["Mansiri Himal", "Thulagi Peak"], "height": 7059, "himal": "MANASLU"}, "geometry": {"type": "Point", "coordinates": [84.5227778, 28.5277778]}}, {"id": "JOMS", "type": "Feature", "properties": {"name": "Jomsom Himal", "alternate_names": ["Jomsang Himal"], "height": 6335, "himal": "DAMODAR"}, "geometry": {"type": "Point", "coordinates": [84.1558333, 28.8408333]}}, {"id": "BAMO", "type": "Feature", "properties": {"name": "Bamongo", "height": 6406, "himal": "ROLWALING"}, "geometry": {"type": "Point", "coordinates": [86.4352778, 27.9086111]}}, {"id": "CHAW", "type": "Feature", "properties": {"name": "Chaw Peak", "alternate_names": ["Chaw East"], "height": 6404, "himal": "JANAK"}, "geometry": {"type": "Point", "coordinates": [87.9441667, 27.9097222]}}, {"id": "DING", "type": "Feature", "properties": {"name": "Dingjung North", "alternate_names": ["Kangkuru", "Rima Mancho"], "height": 6249, "himal": "ROLWALING"}, "geometry": {"type": "Point", "coordinates": [86.5169444, 27.9877778]}}, {"id": "KNAG", "type": "Feature", "properties": {"name": "Kang Nagchugo", "alternate_names": ["Khang Nagchugo"], "height": 6737, "himal": "ROLWALING"}, "geometry": {"type": "Point", "coordinates": [86.4447222, 27.9061111]}}, {"id": "KBON", "type": "Feature", "properties": {"name": "Konabon", "alternate_names": ["Kambon", "Kambong Peak", "Konabon Peak"], "height": 6570, "himal": "DHAULAGIRI"}, "geometry": {"type": "Point", "coordinates": [83.3048561, 28.6599965]}}, {"id": "KHAM", "type": "Feature", "properties": {"name": "Khamjung", "alternate_names": ["Khamjungar", "Khumjung", "Khumjungar"], "height": 6759, "himal": "DAMODAR"}, "geometry": {"type": "Point", "coordinates": [84.1268825, 28.8889917]}}, {"id": "KYR1", "type": "Feature", "properties": {"name": "Kyungka Ri 1", "alternate_names": ["Kyungya Ri 1"], "height": 6599, "himal": "LANGTANG"}, "geometry": {"type": "Point", "coordinates": [85.6705556, 28.2963889]}}, {"id": "KYR2", "type": "Feature", "properties": {"name": "Kyungka Ri 2", "alternate_names": ["Kyungya Ri 2"], "height": 6506, "himal": "LANGTANG"}, "geometry": {"type": "Point", "coordinates": [85.6647222, 28.3033333]}}, {"id": "KOJI", "type": "Feature", "properties": {"name": "Kojichuwa Chuli", "alternate_names": ["Kojichwa Chuli"], "height": 6439, "himal": "KANTI"}, "geometry": {"type": "Point", "coordinates": [82.6436111, 29.8655556]}}, {"id": "CHIV", "type": "Feature", "properties": {"name": "Chhiv Himal", "alternate_names": ["Chhib Himal"], "height": 6650, "himal": "DAMODAR"}, "geometry": {"type": "Point", "coordinates": [84.1598835, 28.8736293]}}, {"id": "LMOC", "type": "Feature", "properties": {"name": "Langmoche Ri", "height": 6552, "himal": "ROLWALING"}, "geometry": {"type": "Point", "coordinates": [86.555, 27.8672222]}}, {"id": "LCHA", "type": "Feature", "properties": {"name": "Lachama Chuli", "alternate_names": ["Kubi Dongdong", "Kubi Kangri"], "height": 6721, "himal": "CHANGLA"}, "geometry": {"type": "Point", "coordinates": [82.2005556, 30.1363889]}}, {"id": "PAN1", "type": "Feature", "properties": {"name": "Panpoche 1", "alternate_names": ["Kutang Himal", "Pang Phunch 1"], "height": 6620, "himal": "KUTANG"}, "geometry": {"type": "Point", "coordinates": [84.6838889, 28.6288889]}}, {"id": "PAN2", "type": "Feature", "properties": {"name": "Panpoche 2", "alternate_names": ["Pang Phunch 2"], "height": 6504, "himal": "KUTANG"}, "geometry": {"type": "Point", "coordinates": [84.6875, 28.6141667]}}, {"id": "PHOL", "type": "Feature", "properties": {"name": "Phole", "height": 6645, "himal": "KUMBHAKARNA"}, "geometry": {"type": "Point", "coordinates": [88.01, 27.6858333]}}, {"id": "PHUK", "type": "Feature", "properties": {"name": "Phu Kang", "alternate_names": ["Phu Khang"], "height": 6694, "himal": "PERI"}, "geometry": {"type": "Point", "coordinates": [84.4491667, 28.7933333]}}, {"id": "LNGK", "type": "Feature", "properties": {"name": "Langchung Khang", "alternate_names": ["Langpo Chung"], "height": 6786, "himal": "NORTHERN"}, "geometry": {"type": "Point", "coordinates": [88.1813889, 27.8561111]}}, {"id": "PK04", "type": "Feature", "properties": {"name": "Peak 4", "alternate_names": ["Peak 3", "Shershon Ri", "Sherson"], "height": 6736, "himal": "MAKALU"}, "geometry": {"type": "Point", "coordinates": [87.1288889, 27.8338889]}}, {"id": "NAM2", "type": "Feature", "properties": {"name": "Nampa II", "height": 6585, "himal": "YOKAPAHAR"}, "geometry": {"type": "Point", "coordinates": [80.9597222, 30.0127778]}}, {"id": "NAM3", "type": "Feature", "properties": {"name": "Nampa III", "alternate_names": ["Nampa Chuli"], "height": 6611, "himal": "YOKAPAHAR"}, "geometry": {"type": "Point", "coordinates": [81.0169444, 29.9808333]}}, {"id": "NAMS", "type": "Feature", "properties": {"name": "Nampa South", "height": 6130, "himal": "YOKAPAHAR"}, "geometry": {"type": "Point", "coordinates": [80.9966667, 29.9858333]}}, {"id": "SOBI", "type": "Feature", "properties": {"name": "Sobithongie", "alternate_names": ["Sobitongie"], "height": 6652, "himal": "KUMBHAKARNA"}, "geometry": {"type": "Point", "coordinates": [88.0280556, 27.6855556]}}, {"id": "SHER", "type": "Feature", "properties": {"name": "Shershon", "alternate_names": ["Peak 3", "Sherson"], "height": 6432, "himal": "MAKALU"}, "geometry": {"type": "Point", "coordinates": [87.1288889, 27.8338889]}}, {"id": "SWAK", "type": "Feature", "properties": {"name": "Swaksa Kang", "height": 6405, "himal": "PALCHUNGHAMGA"}, "geometry": {"type": "Point", "coordinates": [82.8583333, 29.6863889]}}, {"id": "TILJ", "type": "Feature", "properties": {"name": "Tilje", "height": 6530, "himal": "PERI"}, "geometry": {"type": "Point", "coordinates": [84.3952778, 28.7102778]}}, {"id": "TSAR", "type": "Feature", "properties": {"name": "Tsartse", "height": 6343, "himal": "DHAULAGIRI"}, "geometry": {"type": "Point", "coordinates": [83.6486111, 28.8613889]}}, {"id": "YAKA", "type": "Feature", "properties": {"name": "Yakawa Kang", "height": 6482, "himal": "DAMODAR"}, "geometry": {"type": "Point", "coordinates": [83.9419335, 28.8089011]}}, {"id": "YAUP", "type": "Feature", "properties": {"name": "Yaupa", "height": 6422, "himal": "MAKALU"}, "geometry": {"type": "Point", "coordinates": [87.1430556, 27.8369444]}}, {"id": "TILK", "type": "Feature", "properties": {"name": "Til Kang", "height": 6369, "himal": "NALAKANKAR"}, "geometry": {"type": "Point", "coordinates": [81.4144444, 30.27]}}, {"id": "YOKO", "type": "Feature", "properties": {"name": "Yokopahar", "alternate_names": ["Nampa VIII", "Yoko Pahar"], "height": 6423, "himal": "YOKAPAHAR"}, "geometry": {"type": "Point", "coordinates": [81.04, 30.015]}}, {"id": "SALW", "type": "Feature", "properties": {"name": "Saldim West", "alternate_names": ["Peak 5", "Saldim Ri", "Yaphu Ri"], "height": 6388, "himal": "MAKALU"}, "geometry": {"type": "Point", "coordinates": [87.1591667, 27.8241667]}}, {"id": "SAMD", "type": "Feature", "properties": {"name": "Samdo", "alternate_names": ["Samdo Peak"], "height": 6335, "himal": "KUTANG"}, "geometry": {"type": "Point", "coordinates": [84.6464476, 28.670341]}}, {"id": "PURK", "type": "Feature", "properties": {"name": "Purkhung", "alternate_names": ["Purkhang", "Purkung"], "height": 6126, "himal": "DAMODAR"}, "geometry": {"type": "Point", "coordinates": [83.9824071, 28.8279631]}}, {"id": "SWEL", "type": "Feature", "properties": {"name": "Swelokhan", "height": 6180, "himal": "KUTANG"}, "geometry": {"type": "Point", "coordinates": [84.6463889, 28.725]}}, {"id": "MUPK", "type": "Feature", "properties": {"name": "Mustang Peak", "alternate_names": ["Mustang Himal"], "height": 6229, "himal": "MUSTANG"}, "geometry": {"type": "Point", "coordinates": [83.81, 29.2861111]}}, {"id": "JING", "type": "Feature", "properties": {"name": "Jinjang", "alternate_names": ["Gajang", "Genjang", "Jijang"], "height": 6111, "himal": "DAMODAR"}, "geometry": {"type": "Point", "coordinates": [84.032194, 28.7849]}}, {"id": "JOBO", "type": "Feature", "properties": {"name": "Jobo Rinjang", "alternate_names": ["Jobo Ribjang"], "height": 6778, "himal": "ROLWALING"}, "geometry": {"type": "Point", "coordinates": [86.5664238, 28.0434251]}}, {"id": "KYAB", "type": "Feature", "properties": {"name": "Kyabura", "alternate_names": ["Ghabur", "Temachungi"], "height": 6294, "himal": "JANAK"}, "geometry": {"type": "Point", "coordinates": [88.0241667, 27.8963889]}}, {"id": "KUML", "type": "Feature", "properties": {"name": "Kumlung", "alternate_names": ["Kang Kuru", "Kang Kuru?"], "height": 6355, "himal": "DAMODAR"}, "geometry": {"type": "Point", "coordinates": [84.1861111, 28.9013889]}}, {"id": "DGAR", "type": "Feature", "properties": {"name": "Dhaulagari", "alternate_names": ["Dhaulasiri"], "height": 6638, "himal": "YOKAPAHAR"}, "geometry": {"type": "Point", "coordinates": [81.1213889, 29.95]}}, {"id": "LHAY", "type": "Feature", "properties": {"name": "Lhayul Peak", "height": 6395, "himal": "YOKAPAHAR"}, "geometry": {"type": "Point", "coordinates": [80.8688889, 29.9761111]}}, {"id": "MERR", "type": "Feature", "properties": {"name": "Merra", "height": 6334, "himal": "NORTHERN"}, "geometry": {"type": "Point", "coordinates": [88.0197222, 27.7408333]}}, {"id": "PBUK", "type": "Feature", "properties": {"name": "Pabuk Kang", "alternate_names": ["Kangata", "Pabuk Khang"], "height": 6244, "himal": "JANAK"}, "geometry": {"type": "Point", "coordinates": [87.8905556, 27.91]}}, {"id": "YANK", "type": "Feature", "properties": {"name": "Yanme Kang", "alternate_names": ["Yanme Khang"], "height": 6206, "himal": "JANAK"}, "geometry": {"type": "Point", "coordinates": [87.8497222, 27.9461111]}}, {"id": "DANS", "type": "Feature", "properties": {"name": "Danphe Shail", "alternate_names": ["Danfe Shail"], "height": 6103, "himal": "PALCHUNGHAMGA"}, "geometry": {"type": "Point", "coordinates": [83.0102778, 29.6725]}}, {"id": "GAN7", "type": "Feature", "properties": {"name": "Ganesh VII", "alternate_names": ["Ganesh I", "Yangra"], "height": 6350, "himal": "GANESH"}, "geometry": {"type": "Point", "coordinates": [85.1867974, 28.3916458]}}, {"id": "PHAR", "type": "Feature", "properties": {"name": "Pharilapcha", "alternate_names": ["Phari Lapcha"], "height": 6017, "himal": "KHUMBU"}, "geometry": {"type": "Point", "coordinates": [86.6836111, 27.9291667]}}, {"id": "THOR", "type": "Feature", "properties": {"name": "Thorong Peak", "alternate_names": ["Thorung Peak"], "height": 6144, "himal": "DAMODAR"}, "geometry": {"type": "Point", "coordinates": [83.9268777, 28.7819689]}}, {"id": "CHKA", "type": "Feature", "properties": {"name": "Chamar Kang", "alternate_names": ["Chharka", "Kangtega", "Khangtega"], "height": 6060, "himal": "BARUN"}, "geometry": {"type": "Point", "coordinates": [86.8194444, 27.7925]}}, {"id": "NUPK", "type": "Feature", "properties": {"name": "Nupche Kang", "alternate_names": ["Friendship Peak", "Nupche Himal"], "height": 6576, "himal": "KHUMBU"}, "geometry": {"type": "Point", "coordinates": [86.605, 28.1013889]}}, {"id": "PUCH", "type": "Feature", "properties": {"name": "Punchen Himal", "alternate_names": ["Puchen Himal"], "height": 6049, "himal": "GANESH"}, "geometry": {"type": "Point", "coordinates": [85.1483333, 28.6608333]}}, {"id": "KAKU", "type": "Feature", "properties": {"name": "Kang Kuru", "height": 6344, "himal": "DAMODAR"}, "geometry": {"type": "Point", "coordinates": [84.1861111, 28.9013889]}}, {"id": "AMPM", "type": "Feature", "properties": {"name": "Amphu Middle", "alternate_names": ["Amphu I", "Amphu North"], "height": 6202, "himal": "BARUN"}, "geometry": {"type": "Point", "coordinates": [86.9555556, 27.8702778]}}, {"id": "LUGU", "type": "Feature", "properties": {"name": "Lugula", "height": 6899, "himal": "DAMODAR"}, "geometry": {"type": "Point", "coordinates": [84.2616667, 28.8961111]}}, {"id": "BHRS", "type": "Feature", "properties": {"name": "Bhrikuti Shail", "height": 6361, "himal": "DAMODAR"}, "geometry": {"type": "Point", "coordinates": [84.2283333, 28.8938889]}}, {"id": "TOBS", "type": "Feature", "properties": {"name": "Tobsar", "alternate_names": ["Tabsar", "Tobsar Peak"], "height": 6065, "himal": "SERANG"}, "geometry": {"type": "Point", "coordinates": [85.0594444, 28.5805556]}}, {"id": "DINS", "type": "Feature", "properties": {"name": "Dingjung Ri", "alternate_names": ["Dingjung Ri South"], "height": 6196, "himal": "ROLWALING"}, "geometry": {"type": "Point", "coordinates": [86.5227778, 27.9744444]}}, {"id": "DUDH", "type": "Feature", "properties": {"name": "Dudh Kundali", "alternate_names": ["Dui Tal Chuli", "Two Lakes Peak"], "height": 6045, "himal": "KANJIROBA"}, "geometry": {"type": "Point", "coordinates": [82.5455556, 29.2238889]}}, {"id": "KAGA", "type": "Feature", "properties": {"name": "Kanta Gaton", "alternate_names": ["Kangfu Gaton", "Kangfu Gaton Kanta Gaton"], "height": 5910, "himal": "DOLPO"}, "geometry": {"type": "Point", "coordinates": [82.9958333, 29.1033333]}}, {"id": "KAPT", "type": "Feature", "properties": {"name": "Kaptang", "height": 5965, "himal": "KANTI"}, "geometry": {"type": "Point", "coordinates": [82.5736111, 29.9269444]}}, {"id": "RIPI", "type": "Feature", "properties": {"name": "Ripimo Shar", "alternate_names": ["Kang Karpo", "Khang Karpo"], "height": 6647, "himal": "ROLWALING"}, "geometry": {"type": "Point", "coordinates": [86.5180556, 27.8730556]}}, {"id": "TSIS", "type": "Feature", "properties": {"name": "Tsisima", "alternate_names": ["Chijima", "MDM Peak"], "height": 6196, "himal": "JANAK"}, "geometry": {"type": "Point", "coordinates": [88.0405556, 27.8630556]}}, {"id": "URMA", "type": "Feature", "properties": {"name": "Urkema", "alternate_names": ["Baden Powell Scout Peak", "Urgyenma", "Urkema Peak"], "height": 5890, "himal": "JUGAL"}, "geometry": {"type": "Point", "coordinates": [85.5125, 28.1527778]}}, {"id": "MPNW", "type": "Feature", "properties": {"name": "Manapathi NW", "alternate_names": ["Manapathi"], "height": 6384, "himal": "DHAULAGIRI"}, "geometry": {"type": "Point", "coordinates": [83.4588889, 28.6455556]}}, {"id": "LUNR", "type": "Feature", "properties": {"name": "Lunag Ri", "alternate_names": ["Lunag I", "Ondrej Peak", "Rongshar Ri I"], "height": 6895, "himal": "ROLWALING"}, "geometry": {"type": "Point", "coordinates": [86.5500784, 28.0535945]}}, {"id": "JASG", "type": "Feature", "properties": {"name": "Jasemba Goth", "alternate_names": ["Dzasampa Kang", "Jasemba Go"], "height": 6730, "himal": "KHUMBU"}, "geometry": {"type": "Point", "coordinates": [86.605, 28.0872222]}}, {"id": "NAN2", "type": "Feature", "properties": {"name": "Nangamari II", "height": 6209, "himal": "JANAK"}, "geometry": {"type": "Point", "coordinates": [87.8672222, 27.8913889]}}, {"id": "DRAG", "type": "Feature", "properties": {"name": "Dragmorpa Ri", "alternate_names": ["Panaya Tippa", "Thakmarpo Ri"], "height": 6185, "himal": "LANGTANG"}, "geometry": {"type": "Point", "coordinates": [85.6641667, 28.3252778]}}, {"id": "SYKG", "type": "Feature", "properties": {"name": "Syaokang", "alternate_names": ["Suyao Kang"], "height": 5929, "himal": "JANAK"}, "geometry": {"type": "Point", "coordinates": [87.8961111, 27.8825]}}, {"id": "BIJO", "type": "Feature", "properties": {"name": "Bijora Hiunchuli", "alternate_names": ["Bijora Hiun Chuli"], "height": 6111, "himal": "KANJIROBA"}, "geometry": {"type": "Point", "coordinates": [82.5308333, 29.2919444]}}, {"id": "CHUB", "type": "Feature", "properties": {"name": "Chhuboche", "alternate_names": ["Chhuboche Peak"], "height": 5606, "himal": "DAMODAR"}, "geometry": {"type": "Point", "coordinates": [84.2183333, 28.7516667]}}, {"id": "DOMO", "type": "Feature", "properties": {"name": "Domo", "alternate_names": ["Jongsang Peak", "Jongsang SE Peak"], "height": 7447, "himal": "JANAK"}, "geometry": {"type": "Point", "coordinates": [88.1380556, 27.8811111]}}, {"id": "TRIA", "type": "Feature", "properties": {"name": "Triangle Peak", "alternate_names": ["Triangle"], "height": 6484, "himal": "JUGAL"}, "geometry": {"type": "Point", "coordinates": [85.7414742, 28.2724873]}}, {"id": "KASI", "type": "Feature", "properties": {"name": "Kasi Dalpha", "height": 6386, "himal": "KANJIROBA"}, "geometry": {"type": "Point", "coordinates": [82.5547222, 29.2830556]}}, {"id": "NPHU", "type": "Feature", "properties": {"name": "Narphu", "alternate_names": ["Nar Phu"], "height": 5921, "himal": "DAMODAR"}, "geometry": {"type": "Point", "coordinates": [84.1238889, 28.7169444]}}, {"id": "POTA", "type": "Feature", "properties": {"name": "Pota Himal North", "alternate_names": ["Peak Hawley", "Pota North"], "height": 6182, "himal": "DHAULAGIRI"}, "geometry": {"type": "Point", "coordinates": [83.1975, 28.7758333]}}, {"id": "PANN", "type": "Feature", "properties": {"name": "Pangbuk North", "alternate_names": ["Jobo LeCoultre", "Pangbuk Ri"], "height": 6478, "himal": "ROLWALING"}, "geometry": {"type": "Point", "coordinates": [86.5222222, 28.0052778]}}, {"id": "MUST", "type": "Feature", "properties": {"name": "Mustang Himal", "height": 6195, "himal": "MUSTANG"}, "geometry": {"type": "Point", "coordinates": [83.81, 29.2861111]}}, {"id": "MNSL", "type": "Feature", "properties": {"name": "Mansail", "alternate_names": ["Manshail"], "height": 6235, "himal": "GAUTAM"}, "geometry": {"type": "Point", "coordinates": [83.3019444, 29.3019444]}}, {"id": "CPHU", "type": "Feature", "properties": {"name": "Chhochenphu Himal", "height": 6260, "himal": "UMBAK"}, "geometry": {"type": "Point", "coordinates": [87.7644444, 27.8319444]}}, {"id": "TANK", "type": "Feature", "properties": {"name": "Tankya I", "height": 6305, "himal": "PALCHUNGHAMGA"}, "geometry": {"type": "Point", "coordinates": [82.9169444, 29.7061111]}}, {"id": "GORK", "type": "Feature", "properties": {"name": "Gorakh Khang", "height": 6254, "himal": "GORAKH"}, "geometry": {"type": "Point", "coordinates": [82.3375, 30.0441667]}}, {"id": "RAUN", "type": "Feature", "properties": {"name": "Raungsiyar", "height": 6224, "himal": "ROLWALING"}, "geometry": {"type": "Point", "coordinates": [86.5594444, 27.9077778]}}, {"id": "LDAK", "type": "Feature", "properties": {"name": "Langdak", "height": 6220, "himal": "ROLWALING"}, "geometry": {"type": "Point", "coordinates": [86.5636111, 27.9169444]}}, {"id": "TKRE", "type": "Feature", "properties": {"name": "Takargo East", "alternate_names": ["Dragker-go East", "Takargo", "Thakar Go East"], "height": 6152, "himal": "ROLWALING"}, "geometry": {"type": "Point", "coordinates": [86.5116667, 27.8747222]}}, {"id": "OMIT", "type": "Feature", "properties": {"name": "Omitso Go", "alternate_names": ["Omi Tso Go"], "height": 6332, "himal": "ROLWALING"}, "geometry": {"type": "Point", "coordinates": [86.4580556, 27.9152778]}}, {"id": "CBAM", "type": "Feature", "properties": {"name": "Chhopa Bamare", "alternate_names": ["Chomo Pamari"], "height": 6109, "himal": "PAMARI"}, "geometry": {"type": "Point", "coordinates": [86.0919444, 28.0572222]}}, {"id": "YALW", "type": "Feature", "properties": {"name": "Yalung Kang West", "alternate_names": ["Yalung Khang West"], "height": 8077, "himal": "NORTHERN"}, "geometry": {"type": "Point", "coordinates": [88.1255556, 27.7061111]}}, {"id": "KANN", "type": "Feature", "properties": {"name": "Kangchenjunga North", "alternate_names": ["Kanchenjunga North"], "height": 7938, "himal": "NORTHERN"}, "geometry": {"type": "Point", "coordinates": [88.1544444, 27.7108333]}}, {"id": "KBNE", "type": "Feature", "properties": {"name": "Kangbachen East", "alternate_names": ["Kambachen East", "Kangbachen"], "height": 7780, "himal": "NORTHERN"}, "geometry": {"type": "Point", "coordinates": [88.1127778, 27.7163889]}}, {"id": "HERZ", "type": "Feature", "properties": {"name": "Herzog Peak", "alternate_names": ["Khangsar Khang West"], "height": 7555, "himal": "ANNAPURNA"}, "geometry": {"type": "Point", "coordinates": [83.8602778, 28.6091667]}}, {"id": "GANW", "type": "Feature", "properties": {"name": "Gangapurna West", "alternate_names": ["Asapurna", "Gangapurna", "Lachenal Peak", "Lachenel"], "height": 7140, "himal": "ANNAPURNA"}, "geometry": {"type": "Point", "coordinates": [83.9635144, 28.605655]}}, {"id": "CHMR", "type": "Feature", "properties": {"name": "Chamar", "alternate_names": ["Shringi Himal"], "height": 7161, "himal": "SERANG"}, "geometry": {"type": "Point", "coordinates": [84.9437234, 28.5550852]}}, {"id": "NGAP", "type": "Feature", "properties": {"name": "Nepal Gap Peak", "alternate_names": ["Nepal Gyap Peak"], "height": 7007, "himal": "NORTHERN"}, "geometry": {"type": "Point", "coordinates": [88.1808333, 27.7463889]}}, {"id": "GAUS", "type": "Feature", "properties": {"name": "Gaurishankar South", "alternate_names": ["Gauri"], "height": 7010, "himal": "ROLWALING"}, "geometry": {"type": "Point", "coordinates": [86.3502778, 27.9372222]}}, {"id": "BURK", "type": "Feature", "properties": {"name": "Burke Kang", "alternate_names": ["Burke Khang"], "height": 6942, "himal": "KHUMBU"}, "geometry": {"type": "Point", "coordinates": [86.7738889, 28.0369444]}}, {"id": "HMLE", "type": "Feature", "properties": {"name": "Himlung East", "alternate_names": ["Himlung"], "height": 6932, "himal": "PERI"}, "geometry": {"type": "Point", "coordinates": [84.4217998, 28.7723305]}}, {"id": "YNGS", "type": "Feature", "properties": {"name": "Yangra Kangri South", "alternate_names": ["Ganesh I South", "Yangra Kangri", "Yangra South"], "height": 6863, "himal": "GANESH"}, "geometry": {"type": "Point", "coordinates": [85.1294745, 28.3912625]}}, {"id": "NUPL", "type": "Feature", "properties": {"name": "Nup La Kang", "alternate_names": ["Nupla Khang"], "height": 6861, "himal": "KHUMBU"}, "geometry": {"type": "Point", "coordinates": [86.7669444, 28.0741667]}}, {"id": "CHUM", "type": "Feature", "properties": {"name": "Chumbu", "height": 6859, "himal": "KHUMBU"}, "geometry": {"type": "Point", "coordinates": [86.7878294, 28.0136395]}}, {"id": "PHUG", "type": "Feature", "properties": {"name": "Phu Kang Go", "alternate_names": ["Athahra Saya Khola Himal", "Phu Khang Go"], "height": 6767, "himal": "PERI"}, "geometry": {"type": "Point", "coordinates": [84.4938889, 28.7347222]}}, {"id": "GURA", "type": "Feature", "properties": {"name": "Guras", "height": 6744, "himal": "YOKAPAHAR"}, "geometry": {"type": "Point", "coordinates": [81.1088889, 30.0430556]}}, {"id": "THRK", "type": "Feature", "properties": {"name": "Tharke Kang", "alternate_names": ["Tharke Khang"], "height": 6710, "himal": "KHUMBU"}, "geometry": {"type": "Point", "coordinates": [86.7516667, 28.0438889]}}, {"id": "HUGO", "type": "Feature", "properties": {"name": "Hulang Go", "height": 6687, "himal": "PERI"}, "geometry": {"type": "Point", "coordinates": [84.3455556, 28.8727778]}}, {"id": "SHNW", "type": "Feature", "properties": {"name": "Shershon Northwest", "alternate_names": ["Sherson Northwest"], "height": 6682, "himal": "MAKALU"}, "geometry": {"type": "Point", "coordinates": [87.1108333, 27.8552778]}}, {"id": "AGLE", "type": "Feature", "properties": {"name": "Agole East", "alternate_names": ["Angole East"], "height": 6675, "himal": "ROLWALING"}, "geometry": {"type": "Point", "coordinates": [86.5688889, 27.8547222]}}, {"id": "ROLK", "type": "Feature", "properties": {"name": "Rolwaling Kang", "alternate_names": ["Rolwaling Khang"], "height": 6664, "himal": "ROLWALING"}, "geometry": {"type": "Point", "coordinates": [86.5230556, 27.8975]}}, {"id": "YARW", "type": "Feature", "properties": {"name": "Yarwa", "height": 6644, "himal": "YOKAPAHAR"}, "geometry": {"type": "Point", "coordinates": [81.0925, 30.0541667]}}, {"id": "YANG", "type": "Feature", "properties": {"name": "Yangri", "alternate_names": ["Jugal"], "height": 6535, "himal": "JUGAL"}, "geometry": {"type": "Point", "coordinates": [85.8720059, 28.1429688]}}, {"id": "LCHN", "type": "Feature", "properties": {"name": "Lachama North", "height": 6628, "himal": "CHANGLA"}, "geometry": {"type": "Point", "coordinates": [82.2, 30.1433333]}}, {"id": "CHNG", "type": "Feature", "properties": {"name": "Changdi", "height": 6623, "himal": "KANTI"}, "geometry": {"type": "Point", "coordinates": [82.7986111, 29.7191667]}}, {"id": "GOLD", "type": "Feature", "properties": {"name": "Goldum Peak", "alternate_names": ["Goldum", "Pangri Goldumba"], "height": 6632, "himal": "JUGAL"}, "geometry": {"type": "Point", "coordinates": [85.7319362, 28.3252371]}}, {"id": "THOC", "type": "Feature", "properties": {"name": "Thoche Go", "height": 6602, "himal": "PERI"}, "geometry": {"type": "Point", "coordinates": [84.4597222, 28.7577778]}}, {"id": "KCHS", "type": "Feature", "properties": {"name": "Kangchung Shar", "alternate_names": ["Kangcho Shar", "Khangchung", "UIAA Peak"], "height": 6063, "himal": "KHUMBU"}, "geometry": {"type": "Point", "coordinates": [86.7397222, 27.9836111]}}, {"id": "PHUN", "type": "Feature", "properties": {"name": "Phu Kang North", "alternate_names": ["Phu Khang North", "Phu khang North"], "height": 6580, "himal": "PERI"}, "geometry": {"type": "Point", "coordinates": [84.4377778, 28.8208333]}}, {"id": "PTHE", "type": "Feature", "properties": {"name": "Pethangtse East", "alternate_names": ["Pethangtse"], "height": 6572, "himal": "MAKALU"}, "geometry": {"type": "Point", "coordinates": [87.0152042, 27.957236]}}, {"id": "PHNG", "type": "Feature", "properties": {"name": "Phungi", "alternate_names": ["Phungi Himal"], "height": 6524, "himal": "MANASLU"}, "geometry": {"type": "Point", "coordinates": [84.4858333, 28.5544444]}}, {"id": "KNTE", "type": "Feature", "properties": {"name": "Kanti Himal East", "height": 6516, "himal": "KANTI"}, "geometry": {"type": "Point", "coordinates": [82.7022222, 29.8530556]}}, {"id": "JARK", "type": "Feature", "properties": {"name": "Jarkya", "alternate_names": ["Jarkya Peak"], "height": 6473, "himal": "PERI"}, "geometry": {"type": "Point", "coordinates": [84.5269444, 28.7419444]}}, {"id": "MARW", "type": "Feature", "properties": {"name": "Mariyang West", "alternate_names": ["Mariyang"], "height": 6455, "himal": "PALCHUNGHAMGA"}, "geometry": {"type": "Point", "coordinates": [82.8888889, 29.6933333]}}, {"id": "MAYT", "type": "Feature", "properties": {"name": "Mayonthang Kang", "alternate_names": ["Mayun Thang Khang", "Mayung Thang Khang"], "height": 6449, "himal": "KANTI"}, "geometry": {"type": "Point", "coordinates": [82.7466667, 29.7697222]}}, {"id": "LNJU", "type": "Feature", "properties": {"name": "Langju", "alternate_names": ["Lajo Dada"], "height": 6426, "himal": "SERANG"}, "geometry": {"type": "Point", "coordinates": [85.0552778, 28.5458333]}}, {"id": "JYAC", "type": "Feature", "properties": {"name": "Jyachhung", "alternate_names": ["Jyacchhung"], "height": 6338, "himal": "YOKAPAHAR"}, "geometry": {"type": "Point", "coordinates": [81.0858333, 30.1063889]}}, {"id": "GYLA", "type": "Feature", "properties": {"name": "Gyala", "height": 6363, "himal": "PERI"}, "geometry": {"type": "Point", "coordinates": [84.5588889, 28.7519444]}}, {"id": "DOLM", "type": "Feature", "properties": {"name": "Dolma Khang", "alternate_names": ["Tseringma"], "height": 6332, "himal": "ROLWALING"}, "geometry": {"type": "Point", "coordinates": [86.3502778, 27.9372222]}}, {"id": "KAIP", "type": "Feature", "properties": {"name": "Kaipuchonam", "height": 6329, "himal": "KANTI"}, "geometry": {"type": "Point", "coordinates": [82.7833333, 29.7255556]}}, {"id": "LDNG", "type": "Feature", "properties": {"name": "Langdung", "alternate_names": ["Ripumutse"], "height": 6326, "himal": "ROLWALING"}, "geometry": {"type": "Point", "coordinates": [86.4841667, 27.9477778]}}, {"id": "DZA2", "type": "Feature", "properties": {"name": "Dzanye II", "height": 6318, "himal": "JANAK"}, "geometry": {"type": "Point", "coordinates": [88.0411111, 27.9022222]}}, {"id": "PAMA", "type": "Feature", "properties": {"name": "Pama Himal", "height": 6300, "himal": "SERANG"}, "geometry": {"type": "Point", "coordinates": [84.9511111, 28.5802778]}}, {"id": "PERH", "type": "Feature", "properties": {"name": "Peri Himal", "alternate_names": ["Peri"], "height": 6296, "himal": "JUGAL"}, "geometry": {"type": "Point", "coordinates": [85.7236111, 28.3530556]}}, {"id": "TAKL", "type": "Feature", "properties": {"name": "Takla Kang", "alternate_names": ["Takla Khang"], "height": 6276, "himal": "KANTI"}, "geometry": {"type": "Point", "coordinates": [82.6952778, 29.7611111]}}, {"id": "KOGI", "type": "Feature", "properties": {"name": "Kogi Khang North", "alternate_names": ["Kogi Kang North"], "height": 6275, "himal": "KANTI"}, "geometry": {"type": "Point", "coordinates": [82.7391667, 29.8144444]}}, {"id": "ASAJ", "type": "Feature", "properties": {"name": "Asajya Tuppa", "height": 6265, "himal": "GORAKH"}, "geometry": {"type": "Point", "coordinates": [82.2797222, 30.0625]}}, {"id": "KOJS", "type": "Feature", "properties": {"name": "Kojichuwa South", "alternate_names": ["Kojichwa South"], "height": 6264, "himal": "KANTI"}, "geometry": {"type": "Point", "coordinates": [82.6311111, 29.8486111]}}, {"id": "PKAR", "type": "Feature", "properties": {"name": "Pankar Himal", "height": 6264, "himal": "KUTANG"}, "geometry": {"type": "Point", "coordinates": [84.7425, 28.6163889]}}, {"id": "SAUL", "type": "Feature", "properties": {"name": "Saula", "height": 6235, "himal": "KUTANG"}, "geometry": {"type": "Point", "coordinates": [84.7561111, 28.6138889]}}, {"id": "YARA", "type": "Feature", "properties": {"name": "Yala Chuli", "alternate_names": ["Yara Chuli"], "height": 6236, "himal": "PALCHUNGHAMGA"}, "geometry": {"type": "Point", "coordinates": [82.8288889, 29.6894444]}}, {"id": "RHIM", "type": "Feature", "properties": {"name": "Rhimbu", "height": 6210, "himal": "SERANG"}, "geometry": {"type": "Point", "coordinates": [85.0475, 28.5594444]}}, {"id": "SANC", "type": "Feature", "properties": {"name": "Sanctuary Peak", "height": 6207, "himal": "KANJIROBA"}, "geometry": {"type": "Point", "coordinates": [82.6258333, 29.4238889]}}, {"id": "LASA", "type": "Feature", "properties": {"name": "Lasa", "height": 6189, "himal": "YOKAPAHAR"}, "geometry": {"type": "Point", "coordinates": [81.0841667, 30.1358333]}}, {"id": "PERI", "type": "Feature", "properties": {"name": "Peri", "height": 6174, "himal": "JUGAL"}, "geometry": {"type": "Point", "coordinates": [85.7236111, 28.3530556]}}, {"id": "DWIJ", "type": "Feature", "properties": {"name": "Dwijen Himal", "height": 6169, "himal": "SERANG"}, "geometry": {"type": "Point", "coordinates": [84.9033333, 28.5933333]}}, {"id": "JABR", "type": "Feature", "properties": {"name": "Jabou Ri", "height": 6166, "himal": "ROLWALING"}, "geometry": {"type": "Point", "coordinates": [86.5152778, 27.8538889]}}, {"id": "BEDG", "type": "Feature", "properties": {"name": "Beding Go", "alternate_names": ["Bedding Go"], "height": 6125, "himal": "ROLWALING"}, "geometry": {"type": "Point", "coordinates": [86.3930556, 27.9258333]}}, {"id": "TAKN", "type": "Feature", "properties": {"name": "Takphu North", "height": 6142, "himal": "NALAKANKAR"}, "geometry": {"type": "Point", "coordinates": [81.4222222, 30.3036111]}}, {"id": "BHUL", "type": "Feature", "properties": {"name": "Bhulu Lhasa", "height": 6102, "himal": "KANJIROBA"}, "geometry": {"type": "Point", "coordinates": [82.5994444, 29.4413889]}}, {"id": "LNAK", "type": "Feature", "properties": {"name": "Lhonak", "alternate_names": ["Rifil Peak"], "height": 6070, "himal": "JANAK"}, "geometry": {"type": "Point", "coordinates": [88.0572222, 27.8319444]}}, {"id": "ROLM", "type": "Feature", "properties": {"name": "Rolmi", "height": 6056, "himal": "SERANG"}, "geometry": {"type": "Point", "coordinates": [85.0502778, 28.5677778]}}, {"id": "ACHN", "type": "Feature", "properties": {"name": "Aichyn", "alternate_names": ["Ashvin", "Aychin"], "height": 6055, "himal": "NALAKANKAR"}, "geometry": {"type": "Point", "coordinates": [81.8597222, 30.2708333]}}, {"id": "ARDN", "type": "Feature", "properties": {"name": "Ardang", "height": 6034, "himal": "NALAKANKAR"}, "geometry": {"type": "Point", "coordinates": [81.6233333, 30.1988889]}}, {"id": "LUNG", "type": "Feature", "properties": {"name": "Lungchhung", "height": 6043, "himal": "PALCHUNGHAMGA"}, "geometry": {"type": "Point", "coordinates": [83.1222222, 29.6283333]}}, {"id": "KHNG", "type": "Feature", "properties": {"name": "Khung", "height": 6024, "himal": "PALCHUNGHAMGA"}, "geometry": {"type": "Point", "coordinates": [83.1441667, 29.6247222]}}, {"id": "CHND", "type": "Feature", "properties": {"name": "Chandi Himal", "height": 6142, "himal": "NALAKANKAR"}, "geometry": {"type": "Point", "coordinates": [81.9513889, 30.3591667]}}, {"id": "KALI", "type": "Feature", "properties": {"name": "Kali Himal", "alternate_names": ["Baruntse North", "Chota Ri"], "height": 6985, "himal": "BARUN"}, "geometry": {"type": "Point", "coordinates": [86.9796489, 27.8720615]}}, {"id": "DHEC", "type": "Feature", "properties": {"name": "Dhechyan Khang", "height": 6019, "himal": "DAMODAR"}, "geometry": {"type": "Point", "coordinates": [84.2519444, 29.0358333]}}, {"id": "EKRA", "type": "Feature", "properties": {"name": "Ek Rate Danda", "alternate_names": ["Ek Rate Dada"], "height": 6213, "himal": "BARUN"}, "geometry": {"type": "Point", "coordinates": [87.005, 27.7088889]}}, {"id": "GHYN", "type": "Feature", "properties": {"name": "Ghyun Himal I", "height": 6110, "himal": "MUSTANG"}, "geometry": {"type": "Point", "coordinates": [83.7819444, 29.2441667]}}, {"id": "GORH", "type": "Feature", "properties": {"name": "Gorakh Himal", "height": 6198, "himal": "GORAKH"}, "geometry": {"type": "Point", "coordinates": [82.2330556, 30.065]}}, {"id": "HONK", "type": "Feature", "properties": {"name": "Hongku", "alternate_names": ["Hongku Chuli Nup", "Hongu", "Honku", "Sura Peak"], "height": 6764, "himal": "BARUN"}, "geometry": {"type": "Point", "coordinates": [86.9794444, 27.8255556]}}, {"id": "KARK", "type": "Feature", "properties": {"name": "Karko", "height": 6015, "himal": "SAIPAL"}, "geometry": {"type": "Point", "coordinates": [81.2191667, 29.9202778]}}, {"id": "KARS", "type": "Feature", "properties": {"name": "Karsang Kang", "alternate_names": ["Kesang Khang", "Kharsang", "UAAA Peak"], "height": 6225, "himal": "DAMODAR"}, "geometry": {"type": "Point", "coordinates": [84.1694444, 28.9333333]}}, {"id": "KHAY", "type": "Feature", "properties": {"name": "Khayang", "height": 6186, "himal": "KUTANG"}, "geometry": {"type": "Point", "coordinates": [84.7158333, 28.6333333]}}, {"id": "GYLZ", "type": "Feature", "properties": {"name": "Gyalzen Peak", "alternate_names": ["Gyaltsen", "Gyaltsen Peak"], "height": 6151, "himal": "JUGAL"}, "geometry": {"type": "Point", "coordinates": [85.8384328, 28.1836027]}}, {"id": "LSAM", "type": "Feature", "properties": {"name": "Lungsampa", "alternate_names": ["Lumsumna", "Lung Sampa"], "height": 6500, "himal": "KHUMBU"}, "geometry": {"type": "Point", "coordinates": [86.6613889, 28.0527778]}}, {"id": "MERS", "type": "Feature", "properties": {"name": "Mera South", "alternate_names": ["Mera Peak"], "height": 6064, "himal": "BARUN"}, "geometry": {"type": "Point", "coordinates": [86.8686622, 27.7098398]}}, {"id": "PASH", "type": "Feature", "properties": {"name": "Pashuwo", "alternate_names": ["Pashubo"], "height": 6177, "himal": "GANESH"}, "geometry": {"type": "Point", "coordinates": [85.1683333, 28.5319444]}}, {"id": "SATO", "type": "Feature", "properties": {"name": "Sat Peak", "alternate_names": ["Sato Peak"], "height": 6164, "himal": "JANAK"}, "geometry": {"type": "Point", "coordinates": [87.9141667, 27.7111111]}}, {"id": "TSKP", "type": "Feature", "properties": {"name": "Tso Karpo", "height": 6518, "himal": "KANJIROBA"}, "geometry": {"type": "Point", "coordinates": [82.7666667, 29.3666667]}}, {"id": "SPH2", "type": "Feature", "properties": {"name": "Sharphu II", "alternate_names": ["Tanga II"], "height": 6328, "himal": "JANAK"}, "geometry": {"type": "Point", "coordinates": [87.9216667, 27.7577778]}}, {"id": "SPH3", "type": "Feature", "properties": {"name": "Sharphu III", "alternate_names": ["Marson"], "height": 6220, "himal": "JANAK"}, "geometry": {"type": "Point", "coordinates": [87.9072222, 27.7305556]}}, {"id": "SPH4", "type": "Feature", "properties": {"name": "Sharphu IV", "alternate_names": ["Nupchu"], "height": 6172, "himal": "JANAK"}, "geometry": {"type": "Point", "coordinates": [87.9202778, 27.8152778]}}, {"id": "SPH5", "type": "Feature", "properties": {"name": "Sharphu V", "alternate_names": ["Tanga III"], "height": 6158, "himal": "JANAK"}, "geometry": {"type": "Point", "coordinates": [87.92, 27.7452778]}}, {"id": "SPH6", "type": "Feature", "properties": {"name": "Sharphu VI", "height": 6076, "himal": "JANAK"}, "geometry": {"type": "Point", "coordinates": [87.9258333, 27.7736111]}}, {"id": "MNSS", "type": "Feature", "properties": {"name": "Mansail South", "alternate_names": ["Manshail South"], "height": 6248, "himal": "MUSTANG"}, "geometry": {"type": "Point", "coordinates": [83.8102778, 29.2944444]}}, {"id": "NGO3", "type": "Feature", "properties": {"name": "Ngojumba Kang III", "alternate_names": ["Hillary Peak", "Ngojumba Kang", "Ngojumba Khang II"], "height": 7681, "himal": "KHUMBU"}, "geometry": {"type": "Point", "coordinates": [86.6850856, 28.1068465]}}, {"id": "KIMS", "type": "Feature", "properties": {"name": "Kimshung", "alternate_names": ["Kinshung", "Tsangbu Ri"], "height": 6781, "himal": "LANGTANG"}, "geometry": {"type": "Point", "coordinates": [85.5538215, 28.272896]}}, {"id": "SALD", "type": "Feature", "properties": {"name": "Saldim", "height": 6374, "himal": "MAKALU"}, "geometry": {"type": "Point", "coordinates": [87.1730556, 27.8213889]}}, {"id": "LANY", "type": "Feature", "properties": {"name": "Langtang Yubra", "alternate_names": ["Yubra Himal"], "height": 6048, "himal": "LANGTANG"}, "geometry": {"type": "Point", "coordinates": [85.5735866, 28.2688317]}}, {"id": "LARK", "type": "Feature", "properties": {"name": "Larkya Peak", "alternate_names": ["Granite Peak", "Naike Peak"], "height": 6416, "himal": "MANASLU"}, "geometry": {"type": "Point", "coordinates": [84.545, 28.6269444]}}, {"id": "NUPW", "type": "Feature", "properties": {"name": "Nuptse West II", "alternate_names": ["Nuptse", "Nuptse II", "Nuptse Nup II"], "height": 7732, "himal": "KHUMBU"}, "geometry": {"type": "Point", "coordinates": [86.8903249, 27.9658595]}}, {"id": "TENE", "type": "Feature", "properties": {"name": "Tengi Ragi Tau East", "alternate_names": ["Agole", "Tengi Ragi Tau"], "height": 6675, "himal": "ROLWALING"}, "geometry": {"type": "Point", "coordinates": [86.5563889, 27.8572222]}}, {"id": "NILE", "type": "Feature", "properties": {"name": "Nilgiri East", "alternate_names": ["Nilgiri Central", "Nilgiri South"], "height": 6698, "himal": "ANNAPURNA"}, "geometry": {"type": "Point", "coordinates": [83.7296456, 28.6541082]}}, {"id": "PEMR", "type": "Feature", "properties": {"name": "Pemthang Ri", "alternate_names": ["Pem Thang Karpo Ri"], "height": 6743, "himal": "JUGAL"}, "geometry": {"type": "Point", "coordinates": [85.736021, 28.2992576]}}, {"id": "SANB", "type": "Feature", "properties": {"name": "Sano Bhrikuti", "alternate_names": ["Bhrikuti"], "height": 6328, "himal": "DAMODAR"}, "geometry": {"type": "Point", "coordinates": [84.1475, 28.9188889]}}, {"id": "TARS", "type": "Feature", "properties": {"name": "Tarke Kang Shar", "alternate_names": ["Tare Kang", "Tare Khang"], "height": 7069, "himal": "ANNAPURNA"}, "geometry": {"type": "Point", "coordinates": [83.9161111, 28.605]}}, {"id": "KORL", "type": "Feature", "properties": {"name": "Korlang Pari Tippa", "alternate_names": ["Korlang Pari Tippa North"], "height": 5738, "himal": "PAMARI"}, "geometry": {"type": "Point", "coordinates": [86.1911111, 28.1733333]}}, {"id": "JANE", "type": "Feature", "properties": {"name": "Jannu East", "alternate_names": ["Jannu", "Khumbhakarna East", "Kumbhakarna"], "height": 7460, "himal": "KUMBHAKARNA"}, "geometry": {"type": "Point", "coordinates": [88.0463889, 27.6822222]}}, {"id": "YUBR", "type": "Feature", "properties": {"name": "Yubra", "alternate_names": ["Yubra Himal"], "height": 6264, "himal": "LANGTANG"}, "geometry": {"type": "Point", "coordinates": [85.5735866, 28.2688317]}}]}